[{"ekatte":"02614","name":"с. Банище","lat":42.733628789473684,"lng":22.72426394736842,"oblast":"Перник","obshtina":"Брезник"},{"ekatte":"35384","name":"с. Калина","lat":44.06746755555556,"lng":22.76094011111111,"oblast":"Видин","obshtina":"Брегово"},{"ekatte":"51768","name":"с. Нисово","lat":43.6429297826087,"lng":26.089287826086956,"oblast":"Русе","obshtina":"Иваново"},{"ekatte":"35393","name":"с. Калина","lat":43.639059214285716,"lng":28.203188285714283,"oblast":"Добрич","obshtina":"Генерал Тошево"},{"ekatte":"02628","name":"с. Банковец","lat":43.07774138461538,"lng":26.16496676923077,"oblast":"Търговище","obshtina":"Антоново"},{"ekatte":"51785","name":"с. Нова бяла река","lat":42.97126860714286,"lng":26.723881464285714,"oblast":"Шумен","obshtina":"Върбица"},{"ekatte":"35403","name":"с. Калинка","lat":41.677796,"lng":25.36343757142857,"oblast":"Кърджали","obshtina":"Кърджали"},{"ekatte":"68179","name":"с. Спанчевци","lat":43.17511713636364,"lng":23.217799499999998,"oblast":"Монтана","obshtina":"Вършец"},{"ekatte":"02645","name":"с. Банкя","lat":42.85836442857143,"lng":22.681497642857146,"oblast":"Перник","obshtina":"Трън"},{"ekatte":"68182","name":"с. Спасово","lat":42.27113111538461,"lng":25.32577330769231,"oblast":"Стара Загора","obshtina":"Чирпан"},{"ekatte":"51799","name":"с. Нова Върбовка","lat":43.357671608695654,"lng":25.924468217391308,"oblast":"Велико Търново","obshtina":"Стражица"},{"ekatte":"35417","name":"с. Калино","lat":43.470239928571424,"lng":26.977881214285713,"oblast":"Шумен","obshtina":"Хитрино"},{"ekatte":"35420","name":"с. Калитиново","lat":42.422098285714284,"lng":25.743665571428572,"oblast":"Стара Загора","obshtina":"Стара Загора"},{"ekatte":"51809","name":"гр. Нова Загора","lat":42.490760449999996,"lng":26.0265518,"oblast":"Сливен","obshtina":"Нова Загора"},{"ekatte":"02659","name":"гр. Банкя","lat":42.70716022727272,"lng":23.127678227272728,"oblast":"София (столица)","obshtina":"Столична"},{"ekatte":"51812","name":"с. Нова Камена","lat":43.69898574074074,"lng":27.298354407407405,"oblast":"Добрич","obshtina":"Тервел"},{"ekatte":"68196","name":"с. Спасово","lat":43.716666857142854,"lng":28.298674642857144,"oblast":"Добрич","obshtina":"Генерал Тошево"},{"ekatte":"02662","name":"с. Баново","lat":43.2605193125,"lng":27.670694375,"oblast":"Варна","obshtina":"Суворово"},{"ekatte":"35434","name":"с. Калище","lat":42.50716191428572,"lng":22.854001685714287,"oblast":"Перник","obshtina":"Ковачевци"},{"ekatte":"51826","name":"с. Новаково","lat":43.35237117647059,"lng":27.836028470588236,"oblast":"Варна","obshtina":"Аксаково"},{"ekatte":"02676","name":"гр. Банско","lat":41.797030457627116,"lng":23.480401796610167,"oblast":"Благоевград","obshtina":"Банско"},{"ekatte":"51830","name":"с. Новаково","lat":41.88859572727272,"lng":25.07618215151515,"oblast":"Пловдив","obshtina":"Асеновград"},{"ekatte":"35451","name":"с. Калово","lat":42.14103456666667,"lng":27.522415533333334,"oblast":"Бургас","obshtina":"Малко Търново"},{"ekatte":"68223","name":"с. Спатово","lat":41.50597118181818,"lng":23.315879181818183,"oblast":"Благоевград","obshtina":"Сандански"},{"ekatte":"51843","name":"с. Новаковци","lat":42.91601914285714,"lng":25.200556857142857,"oblast":"Габрово","obshtina":"Габрово"},{"ekatte":"02693","name":"с. Баня","lat":41.885116304347825,"lng":23.54883956521739,"oblast":"Благоевград","obshtina":"Разлог"},{"ekatte":"35465","name":"с. Каломен","lat":43.02687483333333,"lng":25.441775833333335,"oblast":"Габрово","obshtina":"Дряново"},{"ekatte":"68237","name":"с. Спахиево","lat":41.896476588235295,"lng":25.33373182352941,"oblast":"Хасково","obshtina":"Минерални бани"},{"ekatte":"02703","name":"с. Баня","lat":42.78136574418605,"lng":27.774802860465115,"oblast":"Бургас","obshtina":"Несебър"},{"ekatte":"68240","name":"с. Сполука","lat":41.686696545454545,"lng":25.148863818181816,"oblast":"Кърджали","obshtina":"Ардино"},{"ekatte":"51857","name":"с. Нова ливада","lat":41.495359,"lng":25.939833,"oblast":"Хасково","obshtina":"Ивайловград"},{"ekatte":"51860","name":"с. Нова Ловча","lat":41.41619225,"lng":23.7211689375,"oblast":"Благоевград","obshtina":"Хаджидимово"},{"ekatte":"35479","name":"с. Калотина","lat":42.98315794736842,"lng":22.85123889473684,"oblast":"София","obshtina":"Драгоман"},{"ekatte":"35482","name":"с. Калотинци","lat":42.537764375,"lng":22.70844925,"oblast":"Перник","obshtina":"Земен"},{"ekatte":"02717","name":"с. Баня","lat":42.46038295,"lng":24.1175046,"oblast":"Пазарджик","obshtina":"Панагюрище"},{"ekatte":"68254","name":"с. Срацимир","lat":44.02883630434783,"lng":27.345875347826087,"oblast":"Силистра","obshtina":"Силистра"},{"ekatte":"02720","name":"гр. Баня","lat":42.553425142857144,"lng":24.832594476190472,"oblast":"Пловдив","obshtina":"Карлово"},{"ekatte":"51874","name":"с. Нова махала","lat":41.94023962962962,"lng":24.276201333333333,"oblast":"Пазарджик","obshtina":"Батак"},{"ekatte":"35496","name":"гр. Калофер","lat":42.65175961818182,"lng":24.967341,"oblast":"Пловдив","obshtina":"Карлово"},{"ekatte":"68268","name":"с. Срацимирово","lat":43.83176293333334,"lng":22.744699,"oblast":"Видин","obshtina":"Грамада"},{"ekatte":"02734","name":"с. Баня","lat":42.598473717948714,"lng":25.947017435897436,"oblast":"Сливен","obshtina":"Нова Загора"},{"ekatte":"51888","name":"с. Нова махала","lat":42.62774327272727,"lng":25.759111454545458,"oblast":"Стара Загора","obshtina":"Николаево"},{"ekatte":"35506","name":"с. Калоян","lat":43.43809052380952,"lng":27.428648476190478,"oblast":"Варна","obshtina":"Вълчи дол"},{"ekatte":"51891","name":"с. Нова Надежда","lat":42.010639000000005,"lng":25.72192585,"oblast":"Хасково","obshtina":"Хасково"},{"ekatte":"35515","name":"с. Калояновец","lat":42.31193,"lng":25.584852736842105,"oblast":"Стара Загора","obshtina":"Стара Загора"},{"ekatte":"02748","name":"с. Бараково","lat":42.05646147058823,"lng":23.061050705882355,"oblast":"Кюстендил","obshtina":"Кочериново"},{"ekatte":"51901","name":"с. Нова Попина","lat":44.031752142857144,"lng":26.959614714285713,"oblast":"Силистра","obshtina":"Ситово"},{"ekatte":"02751","name":"с. Бараци","lat":41.51462,"lng":25.640761076923074,"oblast":"Кърджали","obshtina":"Крумовград"},{"ekatte":"35523","name":"с. Калояново","lat":42.33686836,"lng":24.72741868,"oblast":"Пловдив","obshtina":"Калояново"},{"ekatte":"68299","name":"с. Сребърна","lat":44.08282515384615,"lng":27.065366615384615,"oblast":"Силистра","obshtina":"Силистра"},{"ekatte":"02765","name":"с. Детелина","lat":42.56041744444445,"lng":27.032077444444447,"oblast":"Бургас","obshtina":"Карнобат"},{"ekatte":"35537","name":"с. Калояново","lat":42.69335646428571,"lng":26.471006749999997,"oblast":"Сливен","obshtina":"Сливен"},{"ekatte":"35540","name":"с. Калоянци","lat":41.663983,"lng":25.56940561111111,"oblast":"Кърджали","obshtina":"Кърджали"},{"ekatte":"68309","name":"с. Средец","lat":41.497755142857145,"lng":25.122860714285714,"oblast":"Смолян","obshtina":"Неделино"},{"ekatte":"68312","name":"с. Средец","lat":42.255118125,"lng":25.682423916666664,"oblast":"Стара Загора","obshtina":"Опан"},{"ekatte":"51929","name":"с. Новачево","lat":42.78485172,"lng":26.160328519999997,"oblast":"Сливен","obshtina":"Сливен"},{"ekatte":"02779","name":"с. Барутин","lat":41.588976833333334,"lng":24.177379055555555,"oblast":"Смолян","obshtina":"Доспат"},{"ekatte":"51932","name":"с. Новачене","lat":43.554985607142854,"lng":24.93808771428571,"oblast":"Плевен","obshtina":"Никопол"},{"ekatte":"02782","name":"с. Горна Арда","lat":41.44796636363637,"lng":24.613331545454546,"oblast":"Смолян","obshtina":"Смолян"},{"ekatte":"35554","name":"с. Калугерене","lat":43.91361671428571,"lng":26.863648785714286,"oblast":"Силистра","obshtina":"Главиница"},{"ekatte":"68326","name":"с. Средина","lat":43.61806629411765,"lng":28.24427335294118,"oblast":"Добрич","obshtina":"Генерал Тошево"},{"ekatte":"51946","name":"с. Новачене","lat":42.99407573913044,"lng":23.718125826086954,"oblast":"София","obshtina":"Ботевград"},{"ekatte":"02796","name":"с. Басарбово","lat":43.77174738095238,"lng":25.961783999999998,"oblast":"Русе","obshtina":"Русе"},{"ekatte":"68336","name":"с. Срединка","lat":41.6513374,"lng":25.3440422,"oblast":"Кърджали","obshtina":"Кърджали"},{"ekatte":"35571","name":"с. Калугерово","lat":42.33726216666666,"lng":24.171777733333332,"oblast":"Пазарджик","obshtina":"Лесичово"},{"ekatte":"51956","name":"с. Нова Черна","lat":43.99319931034483,"lng":26.47667124137931,"oblast":"Силистра","obshtina":"Тутракан"},{"ekatte":"02806","name":"с. Баскалци","lat":41.51539866666667,"lng":22.998326185185185,"oblast":"Благоевград","obshtina":"Петрич"},{"ekatte":"02810","name":"с. Бата","lat":42.73413022727272,"lng":27.50839522727273,"oblast":"Бургас","obshtina":"Поморие"},{"ekatte":"51963","name":"с. Нова Шипка","lat":43.0489243125,"lng":27.51525475,"oblast":"Варна","obshtina":"Долни чифлик"},{"ekatte":"35585","name":"с. Калугерово","lat":42.988652439999996,"lng":23.8956822,"oblast":"София","obshtina":"Правец"},{"ekatte":"68357","name":"с. Средище","lat":43.90597224242424,"lng":27.48539615151515,"oblast":"Силистра","obshtina":"Кайнарджа"},{"ekatte":"02823","name":"с. Батак","lat":43.343622,"lng":25.350782555555554,"oblast":"Велико Търново","obshtina":"Павликени"},{"ekatte":"51977","name":"с. Новград","lat":43.610853416666664,"lng":25.572012916666665,"oblast":"Русе","obshtina":"Ценово"},{"ekatte":"51980","name":"гр. Стамболийски","lat":42.13718647619047,"lng":24.536422857142856,"oblast":"Пловдив","obshtina":"Стамболийски"},{"ekatte":"35599","name":"с. Калугерово","lat":42.0836715,"lng":25.848109388888886,"oblast":"Хасково","obshtina":"Симеоновград"},{"ekatte":"02837","name":"гр. Батак","lat":41.855279578512395,"lng":24.16495761983471,"oblast":"Пазарджик","obshtina":"Батак"},{"ekatte":"35609","name":"с. Калчево","lat":42.43353626666667,"lng":26.613656466666665,"oblast":"Ямбол","obshtina":"Тунджа"},{"ekatte":"68388","name":"с. Средковец","lat":43.68271031578947,"lng":27.028321736842102,"oblast":"Шумен","obshtina":"Каолиново"},{"ekatte":"02854","name":"с. Батин","lat":43.65967223809524,"lng":25.680543142857147,"oblast":"Русе","obshtina":"Борово"},{"ekatte":"52009","name":"гр. Нови пазар","lat":43.3537755,"lng":27.204041500000002,"oblast":"Шумен","obshtina":"Нови пазар"},{"ekatte":"52012","name":"с. Нови хан","lat":42.60249293103448,"lng":23.603978379310345,"oblast":"София","obshtina":"Елин Пелин"},{"ekatte":"35630","name":"с. Камбелевци","lat":42.893091500000004,"lng":22.882173,"oblast":"София","obshtina":"Драгоман"},{"ekatte":"68401","name":"с. Средна махала","lat":42.84457592857143,"lng":27.335857714285712,"oblast":"Бургас","obshtina":"Руен"},{"ekatte":"02868","name":"с. Батишница","lat":43.543507,"lng":25.865517999999998,"oblast":"Русе","obshtina":"Две могили"},{"ekatte":"02871","name":"с. Батово","lat":43.4162996,"lng":27.951348680000002,"oblast":"Добрич","obshtina":"Добрич-селска"},{"ekatte":"52026","name":"с. Нови чифлик","lat":42.26539685714285,"lng":22.81535242857143,"oblast":"Кюстендил","obshtina":"Кюстендил"},{"ekatte":"35643","name":"с. Камбурово","lat":43.112322428571424,"lng":26.347159428571427,"oblast":"Търговище","obshtina":"Омуртаг"},{"ekatte":"68415","name":"с. Среднево","lat":41.765921750000004,"lng":25.35905675,"oblast":"Кърджали","obshtina":"Черноочене"},{"ekatte":"02885","name":"с. Батошево","lat":42.89941558823529,"lng":25.079481088235294,"oblast":"Габрово","obshtina":"Севлиево"},{"ekatte":"52038","name":"с. Ново Ботево","lat":43.4762533,"lng":27.721218900000004,"oblast":"Добрич","obshtina":"Добрич-селска"},{"ekatte":"35657","name":"с. Камен","lat":43.29989,"lng":25.937254115384615,"oblast":"Велико Търново","obshtina":"Стражица"},{"ekatte":"52043","name":"с. Ново бърдо","lat":42.96836533333333,"lng":22.838490133333334,"oblast":"София","obshtina":"Драгоман"},{"ekatte":"35660","name":"с. Камен","lat":42.60090348,"lng":26.41065792,"oblast":"Сливен","obshtina":"Сливен"},{"ekatte":"68429","name":"с. Средни колиби","lat":42.913979607142856,"lng":25.735762017857144,"oblast":"Велико Търново","obshtina":"Елена"},{"ekatte":"68432","name":"с. Средни рът","lat":43.058433529411765,"lng":23.918300529411766,"oblast":"Враца","obshtina":"Роман"},{"ekatte":"02899","name":"с. Батулия","lat":42.903726066666664,"lng":23.441003666666667,"oblast":"София","obshtina":"Своге"},{"ekatte":"35674","name":"с. Камен","lat":43.714036,"lng":27.71661363157895,"oblast":"Добрич","obshtina":"Добрич-селска"},{"ekatte":"52060","name":"с. Ново градище","lat":43.21037625,"lng":26.06018425,"oblast":"Велико Търново","obshtina":"Стражица"},{"ekatte":"02909","name":"с. Батулци","lat":43.08759683333333,"lng":24.014343166666666,"oblast":"Ловеч","obshtina":"Ябланица"},{"ekatte":"68446","name":"с. Средногорово","lat":42.5183837804878,"lng":25.33277587804878,"oblast":"Стара Загора","obshtina":"Казанлък"},{"ekatte":"02912","name":"с. Баурене","lat":43.44787622222222,"lng":23.487872888888887,"oblast":"Враца","obshtina":"Криводол"},{"ekatte":"68451","name":"с. Средногорци","lat":41.524885958333336,"lng":24.894494541666663,"oblast":"Смолян","obshtina":"Мадан"},{"ekatte":"35688","name":"с. Камена","lat":41.36133068421052,"lng":23.069730684210526,"oblast":"Благоевград","obshtina":"Петрич"},{"ekatte":"52074","name":"с. Ново Делчево","lat":41.502802125,"lng":23.285534375,"oblast":"Благоевград","obshtina":"Сандански"},{"ekatte":"35691","name":"с. Каменар","lat":42.6127712,"lng":27.5709103,"oblast":"Бургас","obshtina":"Поморие"},{"ekatte":"68463","name":"с. Средно градище","lat":42.308322153846156,"lng":25.278096807692307,"oblast":"Стара Загора","obshtina":"Чирпан"},{"ekatte":"35701","name":"с. Каменар","lat":43.265396789473684,"lng":27.898799368421052,"oblast":"Варна","obshtina":"Варна"},{"ekatte":"02935","name":"с. Баховица","lat":43.197888999999996,"lng":24.667187520000002,"oblast":"Ловеч","obshtina":"Ловеч"},{"ekatte":"52088","name":"с. Ново Железаре","lat":42.41051747058823,"lng":24.67022805882353,"oblast":"Пловдив","obshtina":"Хисаря"},{"ekatte":"52091","name":"с. Ново Кономлади","lat":41.45969127272727,"lng":23.321424636363634,"oblast":"Благоевград","obshtina":"Петрич"},{"ekatte":"68480","name":"с. Средно село","lat":43.344139000000006,"lng":27.424992,"oblast":"Варна","obshtina":"Ветрино"},{"ekatte":"35715","name":"с. Каменар","lat":43.47366552631579,"lng":26.63565657894737,"oblast":"Разград","obshtina":"Лозница"},{"ekatte":"52101","name":"с. Ново Лески","lat":41.530181299999995,"lng":23.7681111,"oblast":"Благоевград","obshtina":"Хаджидимово"},{"ekatte":"02957","name":"с. Бацова махала","lat":43.50269152173913,"lng":24.968005521739133,"oblast":"Плевен","obshtina":"Никопол"},{"ekatte":"68494","name":"с. Средно село","lat":43.0160804074074,"lng":26.07228687037037,"oblast":"Велико Търново","obshtina":"Златарица"},{"ekatte":"02960","name":"с. Бачево","lat":41.944139096774194,"lng":23.415484193548387,"oblast":"Благоевград","obshtina":"Разлог"},{"ekatte":"35729","name":"с. Каменари","lat":42.892231833333334,"lng":26.04758777777778,"oblast":"Велико Търново","obshtina":"Елена"},{"ekatte":"52115","name":"с. Ново Оряхово","lat":42.9968870625,"lng":27.85819475,"oblast":"Варна","obshtina":"Долни чифлик"},{"ekatte":"35732","name":"с. Каменарци","lat":41.62435525,"lng":25.298292083333333,"oblast":"Кърджали","obshtina":"Кърджали"},{"ekatte":"68504","name":"с. Средня","lat":43.2992298,"lng":26.787031849999998,"oblast":"Шумен","obshtina":"Шумен"},{"ekatte":"02974","name":"с. Бачково","lat":41.94098292307693,"lng":24.853087884615384,"oblast":"Пловдив","obshtina":"Асеновград"},{"ekatte":"52129","name":"с. Ново Паничарево","lat":42.232918454545455,"lng":27.54898350909091,"oblast":"Бургас","obshtina":"Приморско"},{"ekatte":"35746","name":"с. Камен бряг","lat":43.46786347368421,"lng":28.535624473684212,"oblast":"Добрич","obshtina":"Каварна"},{"ekatte":"52132","name":"с. Новосел","lat":43.28031333333333,"lng":26.811151619047617,"oblast":"Шумен","obshtina":"Шумен"},{"ekatte":"68518","name":"с. Средогрив","lat":43.55419224,"lng":22.79805904,"oblast":"Видин","obshtina":"Чупрене"},{"ekatte":"02988","name":"с. Букаците","lat":41.47434355,"lng":24.72714235,"oblast":"Смолян","obshtina":"Смолян"},{"ekatte":"35756","name":"с. Камен връх","lat":42.25785083333333,"lng":26.792665749999998,"oblast":"Ямбол","obshtina":"Болярово"},{"ekatte":"02991","name":"с. Башево","lat":41.666873083333336,"lng":25.1491315,"oblast":"Кърджали","obshtina":"Ардино"},{"ekatte":"52146","name":"с. Новоселец","lat":42.30167465,"lng":26.10096655,"oblast":"Сливен","obshtina":"Нова Загора"},{"ekatte":"68535","name":"с. Средорек","lat":42.57056816666667,"lng":22.55632888888889,"oblast":"Кюстендил","obshtina":"Трекляно"},{"ekatte":"52153","name":"с. Новоселище","lat":41.773984625,"lng":25.24704025,"oblast":"Кърджали","obshtina":"Черноочене"},{"ekatte":"03006","name":"с. Бащино","lat":41.71753533333333,"lng":25.56732472222222,"oblast":"Кърджали","obshtina":"Кърджали"},{"ekatte":"35777","name":"с. Камен дял","lat":43.033244933333336,"lng":27.258749133333332,"oblast":"Варна","obshtina":"Дългопол"},{"ekatte":"35780","name":"с. Каменец","lat":43.341298599999995,"lng":25.008892533333334,"oblast":"Плевен","obshtina":"Пордим"},{"ekatte":"68549","name":"с. Средорек","lat":42.87922207692308,"lng":26.146093461538463,"oblast":"Сливен","obshtina":"Сливен"},{"ekatte":"68552","name":"с. Средоселци","lat":43.700238000000006,"lng":26.912862727272728,"oblast":"Разград","obshtina":"Исперих"},{"ekatte":"03017","name":"с. Бащино","lat":43.940850764705885,"lng":26.932306882352943,"oblast":"Силистра","obshtina":"Главиница"},{"ekatte":"03023","name":"с. Бащино","lat":42.0990001,"lng":25.7361187,"oblast":"Стара Загора","obshtina":"Опан"},{"ekatte":"52177","name":"с. Ново село","lat":43.091877857142855,"lng":25.3414795,"oblast":"Велико Търново","obshtina":"Велико Търново"},{"ekatte":"35794","name":"с. Каменец","lat":42.34196682608695,"lng":26.756537260869564,"oblast":"Ямбол","obshtina":"Стралджа"},{"ekatte":"52180","name":"с. Ново село","lat":44.14144445454545,"lng":22.763679363636363,"oblast":"Видин","obshtina":"Ново село"},{"ekatte":"68566","name":"с. Средска","lat":41.7864847,"lng":25.199126200000002,"oblast":"Кърджали","obshtina":"Черноочене"},{"ekatte":"35804","name":"с. Каменик","lat":42.22351810526316,"lng":23.009343684210524,"oblast":"Кюстендил","obshtina":"Бобошево"},{"ekatte":"03037","name":"с. Баячево","lat":43.23238205882353,"lng":26.669703294117646,"oblast":"Търговище","obshtina":"Търговище"},{"ekatte":"03040","name":"с. Бдинци","lat":43.530580150000006,"lng":27.529051850000002,"oblast":"Добрич","obshtina":"Добрич-селска"},{"ekatte":"68577","name":"с. Средско","lat":41.358937250000004,"lng":25.469177833333333,"oblast":"Кърджали","obshtina":"Кирково"},{"ekatte":"52194","name":"с. Ново село","lat":42.18316810714286,"lng":22.670232821428574,"oblast":"Кюстендил","obshtina":"Кюстендил"},{"ekatte":"68583","name":"с. Срем","lat":42.04391724,"lng":26.49295388,"oblast":"Хасково","obshtina":"Тополовград"},{"ekatte":"35818","name":"с. Каменица","lat":41.64954584615385,"lng":23.15743430769231,"oblast":"Благоевград","obshtina":"Струмяни"},{"ekatte":"35821","name":"с. Каменица","lat":42.59050619607843,"lng":23.927844196078432,"oblast":"София","obshtina":"Мирково"},{"ekatte":"03054","name":"с. Беброво","lat":42.96109146753247,"lng":25.989804194805195,"oblast":"Велико Търново","obshtina":"Елена"},{"ekatte":"68597","name":"с. Срънско","lat":41.54213192307692,"lng":25.11143623076923,"oblast":"Кърджали","obshtina":"Ардино"},{"ekatte":"52218","name":"гр. Априлци","lat":42.79970283606557,"lng":24.922915098360658,"oblast":"Ловеч","obshtina":"Априлци"},{"ekatte":"35835","name":"с. Каменичка Скакавица","lat":42.20817866666666,"lng":22.51349253333333,"oblast":"Кюстендил","obshtina":"Кюстендил"},{"ekatte":"03068","name":"с. Беглеж","lat":43.25242333333333,"lng":24.48377772222222,"oblast":"Плевен","obshtina":"Плевен"},{"ekatte":"52221","name":"с. Ново село","lat":42.11371578947369,"lng":24.478584789473686,"oblast":"Пловдив","obshtina":"Стамболийски"},{"ekatte":"68607","name":"с. Ставерци","lat":43.59090110344828,"lng":24.261765551724135,"oblast":"Плевен","obshtina":"Долна Митрополия"},{"ekatte":"68610","name":"с. Стаевци","lat":43.68556673333333,"lng":28.5020214,"oblast":"Добрич","obshtina":"Шабла"},{"ekatte":"35849","name":"с. Каменка","lat":41.47809528571429,"lng":25.685150999999998,"oblast":"Кърджали","obshtina":"Крумовград"},{"ekatte":"52235","name":"с. Ново село","lat":43.7940325,"lng":26.206241071428572,"oblast":"Русе","obshtina":"Русе"},{"ekatte":"03085","name":"с. Бегово","lat":42.41628657142857,"lng":24.837484666666665,"oblast":"Пловдив","obshtina":"Калояново"},{"ekatte":"85010","name":"с. Ъглен","lat":43.20681813513513,"lng":24.322484,"oblast":"Ловеч","obshtina":"Луковит"},{"ekatte":"52249","name":"с. Ново село","lat":42.399498949999995,"lng":23.641237150000002,"oblast":"София","obshtina":"Самоков"},{"ekatte":"35866","name":"с. Каменна река","lat":42.1684987,"lng":26.25773055,"oblast":"Хасково","obshtina":"Тополовград"},{"ekatte":"03099","name":"с. Бегуновци","lat":42.689371666666666,"lng":22.8368352,"oblast":"Перник","obshtina":"Брезник"},{"ekatte":"52252","name":"с. Ново село","lat":42.47302627777778,"lng":25.507909388888887,"oblast":"Стара Загора","obshtina":"Стара Загора"},{"ekatte":"35871","name":"с. Каменна Рикса","lat":43.4657645,"lng":23.035859791666667,"oblast":"Монтана","obshtina":"Георги Дамяново"},{"ekatte":"68641","name":"с. Стайчовци","lat":42.75267873333333,"lng":22.533018000000002,"oblast":"Перник","obshtina":"Трън"},{"ekatte":"03109","name":"с. Бегунци","lat":42.5459935625,"lng":24.873855625,"oblast":"Пловдив","obshtina":"Карлово"},{"ekatte":"03112","name":"с. Беден","lat":41.710937161290325,"lng":24.48621035483871,"oblast":"Смолян","obshtina":"Девин"},{"ekatte":"35883","name":"гр. Камено","lat":42.5601060625,"lng":27.3006955625,"oblast":"Бургас","obshtina":"Камено"},{"ekatte":"68655","name":"с. Стакевци","lat":43.53455497297298,"lng":22.556721162162162,"oblast":"Видин","obshtina":"Белоградчик"},{"ekatte":"03126","name":"с. Беджене","lat":43.46076526666666,"lng":27.276064333333334,"oblast":"Шумен","obshtina":"Нови пазар"},{"ekatte":"52279","name":"с. Константиново","lat":42.39390857692308,"lng":27.329828653846157,"oblast":"Бургас","obshtina":"Камено"},{"ekatte":"35897","name":"с. Каменово","lat":43.729321652173915,"lng":26.484119347826084,"oblast":"Разград","obshtina":"Кубрат"},{"ekatte":"52283","name":"с. Новоселци","lat":43.98296586666667,"lng":22.808917066666666,"oblast":"Видин","obshtina":"Видин"},{"ekatte":"68669","name":"с. Сталево","lat":42.08258871428571,"lng":25.38981642857143,"oblast":"Хасково","obshtina":"Димитровград"},{"ekatte":"68672","name":"с. Сталийска махала","lat":43.74189585,"lng":23.1609053,"oblast":"Монтана","obshtina":"Лом"},{"ekatte":"35907","name":"с. Каменово","lat":42.539345600000004,"lng":26.11773206666667,"oblast":"Сливен","obshtina":"Нова Загора"},{"ekatte":"35910","name":"с. Камено поле","lat":43.23403779310345,"lng":23.917441379310347,"oblast":"Враца","obshtina":"Роман"},{"ekatte":"03143","name":"с. Бежаново","lat":43.23146202777778,"lng":24.38438602777778,"oblast":"Ловеч","obshtina":"Луковит"},{"ekatte":"52297","name":"с. Новоселяне","lat":42.322105416666666,"lng":22.977406083333335,"oblast":"Кюстендил","obshtina":"Бобов дол"},{"ekatte":"52307","name":"с. Ново Ходжово","lat":41.408766799999995,"lng":23.4064512,"oblast":"Благоевград","obshtina":"Сандански"},{"ekatte":"03157","name":"с. Бежаново","lat":43.71249006666667,"lng":28.4011646,"oblast":"Добрич","obshtina":"Генерал Тошево"},{"ekatte":"52310","name":"с. Ново Янково","lat":43.065878705882355,"lng":27.183617529411766,"oblast":"Шумен","obshtina":"Смядово"},{"ekatte":"68692","name":"с. Стамболийски","lat":41.91072478947368,"lng":25.63407442105263,"oblast":"Хасково","obshtina":"Хасково"},{"ekatte":"35938","name":"с. Каменци","lat":43.86761232258065,"lng":27.493294645161292,"oblast":"Силистра","obshtina":"Кайнарджа"},{"ekatte":"52324","name":"с. Ноевци","lat":42.67197265,"lng":22.86745555,"oblast":"Перник","obshtina":"Брезник"},{"ekatte":"68708","name":"с. Стамболово","lat":43.22114127272727,"lng":25.375059181818184,"oblast":"Велико Търново","obshtina":"Павликени"},{"ekatte":"03174","name":"с. Безводица","lat":43.519025666666664,"lng":27.983536523809523,"oblast":"Добрич","obshtina":"Балчик"},{"ekatte":"68713","name":"с. Стамболово","lat":43.90672033333333,"lng":26.302342266666663,"oblast":"Русе","obshtina":"Сливо поле"},{"ekatte":"52338","name":"с. Ножарево","lat":43.916791333333336,"lng":26.902389222222222,"oblast":"Силистра","obshtina":"Главиница"},{"ekatte":"35955","name":"с. Каменяк","lat":42.872581,"lng":27.3066075,"oblast":"Бургас","obshtina":"Руен"},{"ekatte":"03188","name":"с. Безводно","lat":41.755099068965514,"lng":25.096932275862066,"oblast":"Кърджали","obshtina":"Черноочене"},{"ekatte":"52341","name":"с. Ножарово","lat":43.646211,"lng":26.834205363636364,"oblast":"Разград","obshtina":"Самуил"},{"ekatte":"03191","name":"с. Безден","lat":42.89511582352941,"lng":23.107219588235296,"oblast":"София","obshtina":"Костинброд"},{"ekatte":"68727","name":"с. Стамболово","lat":41.77138707407408,"lng":25.653378333333333,"oblast":"Хасково","obshtina":"Стамболово"},{"ekatte":"68730","name":"с. Хан Аспарухово","lat":42.42887446666667,"lng":25.856755466666666,"oblast":"Стара Загора","obshtina":"Стара Загора"},{"ekatte":"03201","name":"с. Безденица","lat":43.5518126875,"lng":23.191445,"oblast":"Монтана","obshtina":"Монтана"},{"ekatte":"35969","name":"с. Каменяк","lat":43.39358809090909,"lng":26.985973045454546,"oblast":"Шумен","obshtina":"Хитрино"},{"ekatte":"35972","name":"с. Каменяне","lat":41.53338261538462,"lng":25.304535384615384,"oblast":"Кърджали","obshtina":"Джебел"},{"ekatte":"68744","name":"с. Стан","lat":43.350888,"lng":27.25904694117647,"oblast":"Шумен","obshtina":"Нови пазар"},{"ekatte":"03215","name":"с. Безмер","lat":43.8077785,"lng":27.409340615384618,"oblast":"Добрич","obshtina":"Тервел"},{"ekatte":"52372","name":"с. Ночево","lat":41.88548733333333,"lng":25.192912444444445,"oblast":"Кърджали","obshtina":"Черноочене"},{"ekatte":"68758","name":"с. Станево","lat":43.82177872222222,"lng":23.44636994444444,"oblast":"Монтана","obshtina":"Лом"},{"ekatte":"68761","name":"с. Станец","lat":43.0756225,"lng":26.383371166666667,"oblast":"Търговище","obshtina":"Омуртаг"},{"ekatte":"03229","name":"с. Безмер","lat":42.46628324,"lng":26.400230320000002,"oblast":"Ямбол","obshtina":"Тунджа"},{"ekatte":"35997","name":"с. Камилски дол","lat":41.6138863,"lng":26.056602233333333,"oblast":"Хасково","obshtina":"Ивайловград"},{"ekatte":"36004","name":"с. Камчия","lat":42.90507524242424,"lng":26.966962666666667,"oblast":"Бургас","obshtina":"Сунгурларе"},{"ekatte":"68775","name":"с. Станинци","lat":43.05709746153846,"lng":22.918869846153846,"oblast":"София","obshtina":"Годеч"},{"ekatte":"52400","name":"с. Николичевци","lat":42.31833190909091,"lng":22.717380181818182,"oblast":"Кюстендил","obshtina":"Кюстендил"},{"ekatte":"36021","name":"с. Кандилка","lat":41.41466152380953,"lng":25.589477904761907,"oblast":"Кърджали","obshtina":"Крумовград"},{"ekatte":"68789","name":"гр. Дупница","lat":42.26551041176471,"lng":23.11490705882353,"oblast":"Кюстендил","obshtina":"Дупница"},{"ekatte":"68792","name":"с. Логодаж","lat":41.979590200000004,"lng":22.957520119999998,"oblast":"Благоевград","obshtina":"Благоевград"},{"ekatte":"03258","name":"с. Каменец","lat":41.4735806,"lng":25.4059224,"oblast":"Кърджали","obshtina":"Момчилград"},{"ekatte":"03263","name":"с. Бела","lat":43.711436931034484,"lng":22.712005,"oblast":"Видин","obshtina":"Димово"},{"ekatte":"68802","name":"с. Становец","lat":43.4981200625,"lng":27.0429554375,"oblast":"Шумен","obshtina":"Хитрино"},{"ekatte":"36035","name":"с. Кандови","lat":42.0225722,"lng":23.830189999999998,"oblast":"Пазарджик","obshtina":"Велинград"},{"ekatte":"03277","name":"с. Беланица","lat":42.4816761,"lng":22.9323424,"oblast":"Перник","obshtina":"Радомир"},{"ekatte":"03280","name":"с. Бела Рада","lat":43.96549051612903,"lng":22.73793493548387,"oblast":"Видин","obshtina":"Видин"},{"ekatte":"36049","name":"с. Каниц","lat":44.03041685714286,"lng":22.608375142857142,"oblast":"Видин","obshtina":"Бойница"},{"ekatte":"68823","name":"с. Станчов хан","lat":42.810412968253964,"lng":25.560686595238096,"oblast":"Габрово","obshtina":"Трявна"},{"ekatte":"03294","name":"с. Беласица","lat":41.36503080000001,"lng":23.154347240000003,"oblast":"Благоевград","obshtina":"Петрич"},{"ekatte":"68833","name":"с. Станьовци","lat":42.69530476470589,"lng":22.743106176470587,"oblast":"Перник","obshtina":"Брезник"},{"ekatte":"36066","name":"с. Каняк","lat":41.749870769230775,"lng":25.285649307692307,"oblast":"Кърджали","obshtina":"Черноочене"},{"ekatte":"03304","name":"с. Белащица","lat":42.070707,"lng":24.738940117647058,"oblast":"Пловдив","obshtina":"Родопи"},{"ekatte":"36079","name":"гр. Каолиново","lat":43.6022415,"lng":27.10386825,"oblast":"Шумен","obshtina":"Каолиново"},{"ekatte":"68847","name":"с. Станянци","lat":43.006493166666665,"lng":26.64616825,"oblast":"Шумен","obshtina":"Върбица"},{"ekatte":"68850","name":"гр. Стара Загора","lat":42.43002975471698,"lng":25.636195018867923,"oblast":"Стара Загора","obshtina":"Стара Загора"},{"ekatte":"36083","name":"с. Капатово","lat":41.47227411111111,"lng":23.349695666666666,"oblast":"Благоевград","obshtina":"Петрич"},{"ekatte":"03318","name":"с. Белгун","lat":43.608788,"lng":28.324273777777776,"oblast":"Добрич","obshtina":"Каварна"},{"ekatte":"03321","name":"с. Белев дол","lat":41.608742,"lng":24.93429169230769,"oblast":"Смолян","obshtina":"Смолян"},{"ekatte":"68864","name":"с. Стара река","lat":42.86860389473684,"lng":26.175064342105266,"oblast":"Сливен","obshtina":"Сливен"},{"ekatte":"03335","name":"с. Белевехчево","lat":41.5588,"lng":23.30512883333333,"oblast":"Благоевград","obshtina":"Сандански"},{"ekatte":"36107","name":"с. Къпиново","lat":43.004297961538455,"lng":25.797592884615387,"oblast":"Велико Търново","obshtina":"Велико Търново"},{"ekatte":"36110","name":"с. Капитан Андреево","lat":41.75364081818182,"lng":26.320426863636364,"oblast":"Хасково","obshtina":"Свиленград"},{"ekatte":"68878","name":"с. Стара река","lat":42.473208428571425,"lng":26.574118857142857,"oblast":"Ямбол","obshtina":"Тунджа"},{"ekatte":"68881","name":"с. Стара речка","lat":43.08944127272727,"lng":26.07027618181818,"oblast":"Търговище","obshtina":"Антоново"},{"ekatte":"03349","name":"с. Белеврен","lat":42.09365905882353,"lng":27.175811970588235,"oblast":"Бургас","obshtina":"Средец"},{"ekatte":"36124","name":"с. Капитан Димитриево","lat":42.11057845833333,"lng":24.341848125,"oblast":"Пазарджик","obshtina":"Пещера"},{"ekatte":"68895","name":"с. Старейшино","lat":41.42645486666667,"lng":25.3876252,"oblast":"Кърджали","obshtina":"Кирково"},{"ekatte":"03366","name":"гр. Белене","lat":43.64428014,"lng":25.13219372,"oblast":"Плевен","obshtina":"Белене"},{"ekatte":"36138","name":"с. Капитан Димитрово","lat":43.955539466666664,"lng":27.68305946666667,"oblast":"Добрич","obshtina":"Крушари"},{"ekatte":"03373","name":"с. Беленци","lat":43.12899947619047,"lng":24.062208761904763,"oblast":"Ловеч","obshtina":"Луковит"},{"ekatte":"36141","name":"с. Капитановци","lat":44.05547707142857,"lng":22.860296714285713,"oblast":"Видин","obshtina":"Видин"},{"ekatte":"03383","name":"с. Бели брег","lat":43.50287245,"lng":23.43210555,"oblast":"Монтана","obshtina":"Бойчиновци"},{"ekatte":"36155","name":"с. Капитан Петко","lat":43.50299653333333,"lng":26.883326,"oblast":"Шумен","obshtina":"Венец"},{"ekatte":"03397","name":"с. Бели брод","lat":43.536604499999996,"lng":23.598784444444444,"oblast":"Монтана","obshtina":"Бойчиновци"},{"ekatte":"68936","name":"с. Стари чал","lat":41.572765159999996,"lng":25.6229682,"oblast":"Кърджали","obshtina":"Крумовград"},{"ekatte":"36169","name":"с. Капище","lat":43.06136518181818,"lng":26.205626454545452,"oblast":"Търговище","obshtina":"Антоново"},{"ekatte":"36172","name":"с. Карабунар","lat":42.259285999999996,"lng":24.165933684210525,"oblast":"Пазарджик","obshtina":"Септември"},{"ekatte":"03407","name":"с. Бели бряг","lat":42.237141071428574,"lng":25.954957428571426,"oblast":"Стара Загора","obshtina":"Раднево"},{"ekatte":"03410","name":"с. Бели вир","lat":41.73182194117647,"lng":25.315790411764706,"oblast":"Кърджали","obshtina":"Черноочене"},{"ekatte":"68953","name":"с. Старово","lat":41.41283469230769,"lng":25.311654615384615,"oblast":"Кърджали","obshtina":"Кирково"},{"ekatte":"36186","name":"с. Каравелово","lat":42.609806266666666,"lng":24.625215866666668,"oblast":"Пловдив","obshtina":"Карлово"},{"ekatte":"03424","name":"с. Бели дол","lat":41.41383641666667,"lng":25.964997666666665,"oblast":"Хасково","obshtina":"Ивайловград"},{"ekatte":"36194","name":"с. Каравелово","lat":43.53330444444444,"lng":27.29980361111111,"oblast":"Шумен","obshtina":"Никола Козлево"},{"ekatte":"68967","name":"с. Старо Железаре","lat":42.442689,"lng":24.658128074074074,"oblast":"Пловдив","obshtina":"Хисаря"},{"ekatte":"36200","name":"с. Каравелово","lat":42.31427452173913,"lng":26.61473913043478,"oblast":"Ямбол","obshtina":"Тунджа"},{"ekatte":"68970","name":"с. Старозагорски бани","lat":42.450877750000004,"lng":25.495710875,"oblast":"Стара Загора","obshtina":"Стара Загора"},{"ekatte":"03438","name":"с. Бели извор","lat":43.27533220833333,"lng":23.459910750000002,"oblast":"Враца","obshtina":"Враца"},{"ekatte":"03441","name":"с. Бели Искър","lat":42.18712073584906,"lng":23.55046252830189,"oblast":"София","obshtina":"Самоков"},{"ekatte":"36213","name":"с. Каравельово","lat":42.93244005263158,"lng":27.146593263157893,"oblast":"Бургас","obshtina":"Руен"},{"ekatte":"68984","name":"с. Старо място","lat":41.65632072727273,"lng":25.298482636363634,"oblast":"Кърджали","obshtina":"Кърджали"},{"ekatte":"03455","name":"с. Белила","lat":42.31602095833333,"lng":27.110669541666667,"oblast":"Бургас","obshtina":"Средец"},{"ekatte":"36227","name":"с. Карагеоргиево","lat":42.738839,"lng":27.193860521739133,"oblast":"Бургас","obshtina":"Айтос"},{"ekatte":"36230","name":"с. Караджалово","lat":42.09809355555555,"lng":25.31058338888889,"oblast":"Пловдив","obshtina":"Първомай"},{"ekatte":"68998","name":"с. Старо Оряхово","lat":42.98894396875,"lng":27.799467656250002,"oblast":"Варна","obshtina":"Долни чифлик"},{"ekatte":"69002","name":"с. Старопатица","lat":43.8345706875,"lng":22.471695625,"oblast":"Видин","obshtina":"Кула"},{"ekatte":"03469","name":"с. Белимел","lat":43.43497927272727,"lng":22.972099272727274,"oblast":"Монтана","obshtina":"Чипровци"},{"ekatte":"03472","name":"с. Белинци","lat":43.6447431875,"lng":26.9597621875,"oblast":"Разград","obshtina":"Исперих"},{"ekatte":"36244","name":"с. Караджово","lat":42.099238380952386,"lng":24.901748047619044,"oblast":"Пловдив","obshtina":"Садово"},{"ekatte":"69016","name":"с. Старосел","lat":42.52743155319149,"lng":24.526398446808514,"oblast":"Пловдив","obshtina":"Хисаря"},{"ekatte":"69020","name":"с. Староселец","lat":43.22613118181818,"lng":27.50099518181818,"oblast":"Варна","obshtina":"Провадия"},{"ekatte":"03486","name":"с. Бели Осъм","lat":42.831512677419354,"lng":24.618789193548388,"oblast":"Ловеч","obshtina":"Троян"},{"ekatte":"36261","name":"с. Караиванца","lat":42.981701599999994,"lng":25.4019142,"oblast":"Габрово","obshtina":"Дряново"},{"ekatte":"03499","name":"с. Бели пласт","lat":41.771453666666666,"lng":25.445948041666668,"oblast":"Кърджали","obshtina":"Кърджали"},{"ekatte":"03504","name":"гр. Белица","lat":42.01008331578947,"lng":23.559135666666666,"oblast":"Благоевград","obshtina":"Белица"},{"ekatte":"69047","name":"с. Старо селище","lat":43.67054504761905,"lng":26.732747333333332,"oblast":"Разград","obshtina":"Исперих"},{"ekatte":"03513","name":"с. Белица","lat":42.85635138235294,"lng":25.585830514705883,"oblast":"Габрово","obshtina":"Трявна"},{"ekatte":"69050","name":"с. Старо село","lat":43.1590997,"lng":23.848936950000002,"oblast":"Враца","obshtina":"Мездра"},{"ekatte":"36289","name":"с. Караисен","lat":43.38292732142857,"lng":25.377927785714288,"oblast":"Велико Търново","obshtina":"Павликени"},{"ekatte":"03527","name":"с. Белица","lat":43.92395328571428,"lng":26.672891999999997,"oblast":"Силистра","obshtina":"Тутракан"},{"ekatte":"69064","name":"с. Старо село","lat":42.485902611111115,"lng":23.105320222222222,"oblast":"Перник","obshtina":"Радомир"},{"ekatte":"03530","name":"с. Белица","lat":41.791327119047615,"lng":24.91739804761905,"oblast":"Пловдив","obshtina":"Лъки"},{"ekatte":"36302","name":"с. Караманите","lat":43.48065656,"lng":27.467972319999998,"oblast":"Варна","obshtina":"Вълчи дол"},{"ekatte":"69078","name":"с. Старо село","lat":43.999260666666665,"lng":26.538231305555556,"oblast":"Силистра","obshtina":"Тутракан"},{"ekatte":"03544","name":"с. Белица","lat":41.828173407407405,"lng":25.998799962962963,"oblast":"Хасково","obshtina":"Любимец"},{"ekatte":"69081","name":"с. Старо село","lat":42.5817936875,"lng":26.143373375,"oblast":"Сливен","obshtina":"Сливен"},{"ekatte":"36316","name":"с. Караманово","lat":43.5500721,"lng":25.5198021,"oblast":"Русе","obshtina":"Ценово"},{"ekatte":"36325","name":"с. Караманци","lat":41.83820764285714,"lng":25.33801935714286,"oblast":"Хасково","obshtina":"Минерални бани"},{"ekatte":"03558","name":"с. Белиш","lat":42.93379476,"lng":24.746040360000002,"oblast":"Ловеч","obshtina":"Троян"},{"ekatte":"69095","name":"с. Староселци","lat":43.54219902941176,"lng":24.302881205882354,"oblast":"Плевен","obshtina":"Искър"},{"ekatte":"03561","name":"с. Бел камен","lat":41.9947395,"lng":23.753764166666667,"oblast":"Благоевград","obshtina":"Якоруда"},{"ekatte":"36333","name":"с. Кара Михал","lat":43.591537823529414,"lng":26.846711352941178,"oblast":"Разград","obshtina":"Самуил"},{"ekatte":"69105","name":"с. Старцево","lat":41.42970792307692,"lng":25.05374130769231,"oblast":"Смолян","obshtina":"Златоград"},{"ekatte":"03575","name":"с. Беловец","lat":43.80745065384615,"lng":26.390828615384617,"oblast":"Разград","obshtina":"Кубрат"},{"ekatte":"36350","name":"с. Карамфил","lat":41.4792606875,"lng":25.560593625,"oblast":"Кърджали","obshtina":"Момчилград"},{"ekatte":"69119","name":"с. Старчево","lat":41.47986392857143,"lng":23.241265785714287,"oblast":"Благоевград","obshtina":"Петрич"},{"ekatte":"69122","name":"с. Стар читак","lat":41.66908028571429,"lng":25.233139142857144,"oblast":"Кърджали","obshtina":"Ардино"},{"ekatte":"03589","name":"с. Беловица","lat":42.412235375,"lng":24.5216995,"oblast":"Пловдив","obshtina":"Хисаря"},{"ekatte":"03592","name":"гр. Белово","lat":42.15758424590164,"lng":23.951096540983606,"oblast":"Пазарджик","obshtina":"Белово"},{"ekatte":"36364","name":"с. Каран Върбовка","lat":43.4942775,"lng":26.009604333333332,"oblast":"Русе","obshtina":"Две могили"},{"ekatte":"69136","name":"с. Старчище","lat":43.00976575,"lng":26.1773641875,"oblast":"Търговище","obshtina":"Антоново"},{"ekatte":"03602","name":"с. Белоградец","lat":43.341008137931034,"lng":27.339006172413793,"oblast":"Варна","obshtina":"Ветрино"},{"ekatte":"69146","name":"с. Стеврек","lat":42.98293485294118,"lng":26.145198147058824,"oblast":"Търговище","obshtina":"Антоново"},{"ekatte":"36381","name":"с. Караново","lat":42.63927128571429,"lng":27.18579761904762,"oblast":"Бургас","obshtina":"Айтос"},{"ekatte":"03616","name":"гр. Белоградчик","lat":43.6257754,"lng":22.683155040000003,"oblast":"Видин","obshtina":"Белоградчик"},{"ekatte":"69153","name":"с. Стежерово","lat":43.48986964285714,"lng":25.154780999999996,"oblast":"Плевен","obshtina":"Левски"},{"ekatte":"03620","name":"с. Белозем","lat":42.195353043478256,"lng":25.046369913043478,"oblast":"Пловдив","obshtina":"Раковски"},{"ekatte":"36395","name":"с. Караново","lat":42.511505,"lng":25.90828564,"oblast":"Сливен","obshtina":"Нова Загора"},{"ekatte":"69167","name":"с. Стенско","lat":42.37502518181818,"lng":22.68845527272727,"oblast":"Кюстендил","obshtina":"Кюстендил"},{"ekatte":"03633","name":"с. Белокопитово","lat":43.3296712,"lng":26.891292466666666,"oblast":"Шумен","obshtina":"Шумен"},{"ekatte":"69170","name":"с. Стефан Караджа","lat":43.483127764705884,"lng":27.40982829411765,"oblast":"Варна","obshtina":"Вълчи дол"},{"ekatte":"36405","name":"с. Каранци","lat":43.38616722727273,"lng":25.68945381818182,"oblast":"Велико Търново","obshtina":"Полски Тръмбеш"},{"ekatte":"03647","name":"с. Беломорци","lat":43.14355922222222,"lng":26.432561500000002,"oblast":"Търговище","obshtina":"Омуртаг"},{"ekatte":"69184","name":"с. Стефан Караджа","lat":43.89159959375,"lng":26.71324834375,"oblast":"Силистра","obshtina":"Главиница"},{"ekatte":"20033","name":"с. Давидково","lat":41.667002631578946,"lng":24.961640157894738,"oblast":"Смолян","obshtina":"Баните"},{"ekatte":"36419","name":"с. Карапелит","lat":43.658365375,"lng":27.57258840625,"oblast":"Добрич","obshtina":"Добрич-селска"},{"ekatte":"36422","name":"с. Караполци","lat":42.61120571428571,"lng":23.704286,"oblast":"София","obshtina":"Елин Пелин"},{"ekatte":"69198","name":"с. Стефан Караджа","lat":43.63213375,"lng":27.887961375,"oblast":"Добрич","obshtina":"Добрич-селска"},{"ekatte":"20047","name":"с. Давидово","lat":43.88583126315789,"lng":27.457296578947368,"oblast":"Силистра","obshtina":"Кайнарджа"},{"ekatte":"03664","name":"с. Бело поле","lat":42.03891625,"lng":23.043088875,"oblast":"Благоевград","obshtina":"Благоевград"},{"ekatte":"20050","name":"с. Давидово","lat":43.29757216666667,"lng":26.562237166666666,"oblast":"Търговище","obshtina":"Търговище"},{"ekatte":"36436","name":"с. Караш","lat":43.08211667741936,"lng":23.91762835483871,"oblast":"Враца","obshtina":"Роман"},{"ekatte":"36440","name":"с. Карбинци","lat":43.68026380952381,"lng":22.834739523809525,"oblast":"Видин","obshtina":"Димово"},{"ekatte":"69208","name":"с. Стефан Караджово","lat":42.214987310344824,"lng":26.84447375862069,"oblast":"Ямбол","obshtina":"Болярово"},{"ekatte":"03678","name":"с. Бело поле","lat":43.660290964285714,"lng":22.920498785714283,"oblast":"Видин","obshtina":"Ружинци"},{"ekatte":"20064","name":"с. Дагоново","lat":41.96858195652174,"lng":23.600612956521736,"oblast":"Благоевград","obshtina":"Белица"},{"ekatte":"03681","name":"с. Белополци","lat":41.518079896551725,"lng":25.805130724137932,"oblast":"Хасково","obshtina":"Ивайловград"},{"ekatte":"36453","name":"с. Карвуна","lat":43.481938444444445,"lng":28.030325166666668,"oblast":"Добрич","obshtina":"Балчик"},{"ekatte":"69225","name":"с. Стефаново","lat":43.02792342307692,"lng":24.81341826923077,"oblast":"Ловеч","obshtina":"Ловеч"},{"ekatte":"03695","name":"с. Белополяне","lat":41.453271882352944,"lng":26.149913529411762,"oblast":"Хасково","obshtina":"Ивайловград"},{"ekatte":"36467","name":"с. Кардам","lat":43.75968704347826,"lng":28.122115608695655,"oblast":"Добрич","obshtina":"Генерал Тошево"},{"ekatte":"36470","name":"с. Кардам","lat":43.3680982173913,"lng":26.28819730434783,"oblast":"Търговище","obshtina":"Попово"},{"ekatte":"69239","name":"с. Стефаново","lat":42.50225785714286,"lng":23.037240571428573,"oblast":"Перник","obshtina":"Радомир"},{"ekatte":"03705","name":"с. Белопопци","lat":42.671860882352945,"lng":23.77520976470588,"oblast":"София","obshtina":"Горна Малина"},{"ekatte":"69242","name":"с. Стефаново","lat":43.49257495,"lng":27.8629081,"oblast":"Добрич","obshtina":"Добрич-селска"},{"ekatte":"36484","name":"с. Карлиево","lat":42.64898625,"lng":24.124305928571427,"oblast":"София","obshtina":"Златица"},{"ekatte":"03719","name":"гр. Белослав","lat":43.17775609090909,"lng":27.690354545454547,"oblast":"Варна","obshtina":"Белослав"},{"ekatte":"20105","name":"с. Дамяница","lat":41.50779863636364,"lng":23.267306363636365,"oblast":"Благоевград","obshtina":"Сандански"},{"ekatte":"03722","name":"с. Белотинци","lat":43.54134855172414,"lng":22.9210294137931,"oblast":"Монтана","obshtina":"Монтана"},{"ekatte":"69261","name":"с. Стоб","lat":42.09393871428571,"lng":23.128050666666667,"oblast":"Кюстендил","obshtina":"Кочериново"},{"ekatte":"36498","name":"гр. Карлово","lat":42.666399274999996,"lng":24.8346637,"oblast":"Пловдив","obshtina":"Карлово"},{"ekatte":"20119","name":"с. Дамяново","lat":43.00401688,"lng":24.92835028,"oblast":"Габрово","obshtina":"Севлиево"},{"ekatte":"03736","name":"с. Долно Белотинци","lat":43.45371004761905,"lng":23.27603338095238,"oblast":"Монтана","obshtina":"Монтана"},{"ekatte":"69273","name":"с. Стоево","lat":41.975804,"lng":24.992122900000002,"oblast":"Пловдив","obshtina":"Асеновград"},{"ekatte":"36508","name":"с. Карловско","lat":41.531542076923074,"lng":25.93146376923077,"oblast":"Хасково","obshtina":"Ивайловград"},{"ekatte":"36511","name":"с. Карлуково","lat":43.17004023076923,"lng":24.070043,"oblast":"Ловеч","obshtina":"Луковит"},{"ekatte":"03745","name":"с. Белцов","lat":43.583684846153844,"lng":25.64778623076923,"oblast":"Русе","obshtina":"Ценово"},{"ekatte":"69287","name":"с. Стоевци","lat":42.8951638,"lng":25.2081212,"oblast":"Габрово","obshtina":"Габрово"},{"ekatte":"36525","name":"гр. Карнобат","lat":42.642827818181814,"lng":26.982570727272726,"oblast":"Бургас","obshtina":"Карнобат"},{"ekatte":"69300","name":"с. Стожер","lat":43.43706077142857,"lng":27.859104885714284,"oblast":"Добрич","obshtina":"Добрич-селска"},{"ekatte":"03767","name":"с. Белчин","lat":42.340934,"lng":23.39141496969697,"oblast":"София","obshtina":"Самоков"},{"ekatte":"20153","name":"с. Даскал-Атанасово","lat":42.33706755,"lng":25.90942265,"oblast":"Стара Загора","obshtina":"Раднево"},{"ekatte":"69314","name":"с. Стоил войвода","lat":42.46298631818182,"lng":25.978787818181818,"oblast":"Сливен","obshtina":"Нова Загора"},{"ekatte":"20167","name":"с. Даскалово","lat":41.78526073333333,"lng":25.299127133333332,"oblast":"Кърджали","obshtina":"Черноочене"},{"ekatte":"03784","name":"с. Бельово","lat":41.474635375,"lng":23.585819625,"oblast":"Благоевград","obshtina":"Сандански"},{"ekatte":"69328","name":"с. Стоилово","lat":42.050884499999995,"lng":27.525296571428573,"oblast":"Бургас","obshtina":"Малко Търново"},{"ekatte":"03798","name":"с. Беляковец","lat":43.10672018181818,"lng":25.56985931818182,"oblast":"Велико Търново","obshtina":"Велико Търново"},{"ekatte":"36566","name":"с. Касилаг","lat":42.426369375,"lng":22.978345,"oblast":"Перник","obshtina":"Радомир"},{"ekatte":"20184","name":"гр. Две могили","lat":43.59758896666666,"lng":25.87471916666667,"oblast":"Русе","obshtina":"Две могили"},{"ekatte":"36573","name":"с. Каснаково","lat":42.01464517647059,"lng":25.49128782352941,"oblast":"Хасково","obshtina":"Димитровград"},{"ekatte":"03808","name":"с. Беляново","lat":43.61328507142857,"lng":25.641639285714287,"oblast":"Русе","obshtina":"Ценово"},{"ekatte":"69345","name":"с. Стойките","lat":41.64385071111111,"lng":24.633435133333332,"oblast":"Смолян","obshtina":"Смолян"},{"ekatte":"03811","name":"с. Бенковски","lat":43.11675978947368,"lng":27.784416631578946,"oblast":"Варна","obshtina":"Аврен"},{"ekatte":"20198","name":"с. Две тополи","lat":41.704295782608696,"lng":25.05415656521739,"oblast":"Смолян","obshtina":"Баните"},{"ekatte":"36587","name":"гр. Каспичан","lat":43.29999445945946,"lng":27.15596854054054,"oblast":"Шумен","obshtina":"Каспичан"},{"ekatte":"36590","name":"с. Каспичан","lat":43.29819416666667,"lng":27.177201999999998,"oblast":"Шумен","obshtina":"Каспичан"},{"ekatte":"69359","name":"с. Стойково","lat":41.93038357142857,"lng":25.719283523809526,"oblast":"Хасково","obshtina":"Хасково"},{"ekatte":"20208","name":"с. Дворище","lat":42.3419085,"lng":22.7515383,"oblast":"Кюстендил","obshtina":"Кюстендил"},{"ekatte":"03825","name":"с. Бенковски","lat":41.39100880952381,"lng":25.26183342857143,"oblast":"Кърджали","obshtina":"Кирково"},{"ekatte":"03839","name":"с. Бенковски","lat":42.217970333333334,"lng":24.66628725,"oblast":"Пловдив","obshtina":"Марица"},{"ekatte":"69376","name":"с. Стойново","lat":43.099487875,"lng":26.22703675,"oblast":"Търговище","obshtina":"Антоново"},{"ekatte":"20225","name":"с. Дебел дял","lat":42.87335421428571,"lng":25.17470121428571,"oblast":"Габрово","obshtina":"Габрово"},{"ekatte":"03842","name":"с. Бенковски","lat":42.64407,"lng":24.0087102,"oblast":"София","obshtina":"Мирково"},{"ekatte":"36614","name":"с. Катерица","lat":43.30618877777778,"lng":24.916875222222224,"oblast":"Плевен","obshtina":"Пордим"},{"ekatte":"03856","name":"с. Бенковски","lat":42.398168850000005,"lng":25.87999955,"oblast":"Стара Загора","obshtina":"Стара Загора"},{"ekatte":"20242","name":"гр. Дебелец","lat":43.0389127,"lng":25.59187365,"oblast":"Велико Търново","obshtina":"Велико Търново"},{"ekatte":"03860","name":"с. Бенковски","lat":43.60956057894737,"lng":27.470646631578944,"oblast":"Добрич","obshtina":"Добрич-селска"},{"ekatte":"53014","name":"с. Обединение","lat":43.338700878787876,"lng":25.48989993939394,"oblast":"Велико Търново","obshtina":"Полски Тръмбеш"},{"ekatte":"36631","name":"с. Катраница","lat":41.5848200625,"lng":24.897965875,"oblast":"Смолян","obshtina":"Смолян"},{"ekatte":"20256","name":"с. Дебели лаг","lat":42.44654045,"lng":22.852899400000002,"oblast":"Перник","obshtina":"Радомир"},{"ekatte":"03873","name":"с. Берайнци","lat":42.808103714285714,"lng":22.587751142857144,"oblast":"Перник","obshtina":"Трън"},{"ekatte":"53031","name":"с. Обел","lat":41.96183994444445,"lng":22.902366,"oblast":"Благоевград","obshtina":"Благоевград"},{"ekatte":"69417","name":"с. Стоките","lat":42.83223803797468,"lng":25.094704,"oblast":"Габрово","obshtina":"Севлиево"},{"ekatte":"20268","name":"с. Дебели рът","lat":42.99776537037037,"lng":25.997176555555555,"oblast":"Велико Търново","obshtina":"Елена"},{"ekatte":"69420","name":"с. Столетово","lat":42.696825823529416,"lng":24.61980705882353,"oblast":"Пловдив","obshtina":"Карлово"},{"ekatte":"03887","name":"с. Беренде","lat":42.62085784615385,"lng":22.81652407692308,"oblast":"Перник","obshtina":"Земен"},{"ekatte":"20273","name":"с. Дебелт","lat":42.3744622972973,"lng":27.28280697297297,"oblast":"Бургас","obshtina":"Средец"},{"ekatte":"03890","name":"с. Беренде","lat":42.99516718181818,"lng":22.929314545454545,"oblast":"София","obshtina":"Драгоман"},{"ekatte":"36659","name":"с. Катрище","lat":42.282567666666665,"lng":22.8317302,"oblast":"Кюстендил","obshtina":"Кюстендил"},{"ekatte":"53045","name":"гр. Обзор","lat":42.80592694736842,"lng":27.861670210526313,"oblast":"Бургас","obshtina":"Несебър"},{"ekatte":"36662","name":"с. Катунец","lat":43.192027567567564,"lng":24.49916154054054,"oblast":"Ловеч","obshtina":"Угърчин"},{"ekatte":"69434","name":"с. Столетово","lat":42.1349375,"lng":25.751382833333334,"oblast":"Стара Загора","obshtina":"Опан"},{"ekatte":"03900","name":"с. Беренде извор","lat":43.00219577777778,"lng":22.89728388888889,"oblast":"София","obshtina":"Драгоман"},{"ekatte":"20287","name":"с. Дебелцово","lat":43.09508729411765,"lng":25.091208941176472,"oblast":"Габрово","obshtina":"Севлиево"},{"ekatte":"20290","name":"с. Дебеляново","lat":41.670448,"lng":25.007332800000004,"oblast":"Смолян","obshtina":"Баните"},{"ekatte":"53059","name":"с. Обидим","lat":41.762223115384614,"lng":23.58972219230769,"oblast":"Благоевград","obshtina":"Банско"},{"ekatte":"36676","name":"с. Катуница","lat":42.108783333333335,"lng":24.877403916666665,"oblast":"Пловдив","obshtina":"Садово"},{"ekatte":"53062","name":"с. Обител","lat":43.0666985,"lng":26.557019125,"oblast":"Търговище","obshtina":"Омуртаг"},{"ekatte":"69448","name":"с. Столник","lat":42.71111460869565,"lng":23.638165565217392,"oblast":"София","obshtina":"Елин Пелин"},{"ekatte":"36681","name":"с. Катунище","lat":42.818265727272724,"lng":26.509294863636363,"oblast":"Сливен","obshtina":"Котел"},{"ekatte":"03914","name":"с. Бериево","lat":42.9749815,"lng":24.89782645,"oblast":"Габрово","obshtina":"Севлиево"},{"ekatte":"69451","name":"с. Столът","lat":42.913058,"lng":24.970773783783784,"oblast":"Габрово","obshtina":"Севлиево"},{"ekatte":"20300","name":"с. Дебнево","lat":42.96961946666667,"lng":24.841905966666666,"oblast":"Ловеч","obshtina":"Троян"},{"ekatte":"53076","name":"с. Обичник","lat":41.496355333333334,"lng":25.47937988888889,"oblast":"Кърджали","obshtina":"Момчилград"},{"ekatte":"36693","name":"с. Катунци","lat":41.45206628571429,"lng":23.425804571428575,"oblast":"Благоевград","obshtina":"Сандански"},{"ekatte":"03928","name":"гр. Берковица","lat":43.216846272727274,"lng":23.096441977272725,"oblast":"Монтана","obshtina":"Берковица"},{"ekatte":"69465","name":"с. Стоманево","lat":41.80893872222222,"lng":24.417688000000002,"oblast":"Смолян","obshtina":"Девин"},{"ekatte":"20314","name":"с. Дебово","lat":43.583037058823535,"lng":24.85957617647059,"oblast":"Плевен","obshtina":"Никопол"},{"ekatte":"03931","name":"с. Берковски","lat":43.24250308333333,"lng":26.210074583333334,"oblast":"Търговище","obshtina":"Попово"},{"ekatte":"36703","name":"с. Кацелово","lat":43.546390448275865,"lng":26.05864203448276,"oblast":"Русе","obshtina":"Две могили"},{"ekatte":"53089","name":"с. Обнова","lat":43.42510126923077,"lng":24.994173192307695,"oblast":"Плевен","obshtina":"Левски"},{"ekatte":"53093","name":"с. Оборище","lat":43.462266066666665,"lng":27.657083666666665,"oblast":"Варна","obshtina":"Вълчи дол"},{"ekatte":"69479","name":"с. Стоманеците","lat":42.80336225,"lng":25.293728,"oblast":"Габрово","obshtina":"Габрово"},{"ekatte":"20328","name":"с. Дебочица","lat":41.86094511764706,"lng":22.968071588235293,"oblast":"Благоевград","obshtina":"Благоевград"},{"ekatte":"69482","name":"с. Стоманци","lat":41.414239,"lng":25.285023923076924,"oblast":"Кърджали","obshtina":"Кирково"},{"ekatte":"20331","name":"с. Дебрен","lat":41.60320318181818,"lng":23.843276863636365,"oblast":"Благоевград","obshtina":"Гърмен"},{"ekatte":"36717","name":"с. Качулка","lat":41.50689752173913,"lng":25.69418252173913,"oblast":"Кърджали","obshtina":"Крумовград"},{"ekatte":"53103","name":"с. Оборище","lat":42.513787428571426,"lng":24.080752095238093,"oblast":"Пазарджик","obshtina":"Панагюрище"},{"ekatte":"03959","name":"с. Бероново","lat":42.81920643478261,"lng":26.694635782608696,"oblast":"Бургас","obshtina":"Сунгурларе"},{"ekatte":"69496","name":"с. Стоян-Заимово","lat":42.3450481875,"lng":25.3503516875,"oblast":"Стара Загора","obshtina":"Чирпан"},{"ekatte":"20345","name":"с. Дебрене","lat":41.58747233333333,"lng":23.316580333333334,"oblast":"Благоевград","obshtina":"Сандански"},{"ekatte":"03962","name":"с. Берсин","lat":42.242970176470585,"lng":22.77494011764706,"oblast":"Кюстендил","obshtina":"Кюстендил"},{"ekatte":"53117","name":"с. Обретеник","lat":43.582013214285716,"lng":25.805024892857144,"oblast":"Русе","obshtina":"Борово"},{"ekatte":"36734","name":"с. Кашина","lat":41.58373726086957,"lng":23.477067869565218,"oblast":"Благоевград","obshtina":"Сандански"},{"ekatte":"53120","name":"с. Оброчище","lat":43.39769125,"lng":28.069436624999998,"oblast":"Добрич","obshtina":"Балчик"},{"ekatte":"69506","name":"с. Стоян Михайловски","lat":43.411677884615386,"lng":27.175488076923077,"oblast":"Шумен","obshtina":"Нови пазар"},{"ekatte":"20359","name":"с. Дебрене","lat":43.388350714285714,"lng":27.86988966666667,"oblast":"Добрич","obshtina":"Добрич-селска"},{"ekatte":"03976","name":"с. Беслен","lat":41.463029,"lng":23.97002527777778,"oblast":"Благоевград","obshtina":"Хаджидимово"},{"ekatte":"20362","name":"с. Дебръщица","lat":42.102877863636365,"lng":24.25954331818182,"oblast":"Пазарджик","obshtina":"Пазарджик"},{"ekatte":"36748","name":"с. Каялоба","lat":41.36832725,"lng":25.19270391666667,"oblast":"Кърджали","obshtina":"Кирково"},{"ekatte":"53134","name":"с. Обручище","lat":42.13078987878788,"lng":25.957791999999998,"oblast":"Стара Загора","obshtina":"Гълъбово"},{"ekatte":"36751","name":"с. Керека","lat":43.03029433333333,"lng":25.463089333333333,"oblast":"Габрово","obshtina":"Дряново"},{"ekatte":"69518","name":"с. Стояново","lat":41.578576769230764,"lng":25.040564153846155,"oblast":"Кърджали","obshtina":"Ардино"},{"ekatte":"03986","name":"с. Беснурка","lat":41.763507714285716,"lng":25.246460000000003,"oblast":"Кърджали","obshtina":"Черноочене"},{"ekatte":"69523","name":"с. Радювене","lat":43.1245682631579,"lng":24.58801489473684,"oblast":"Ловеч","obshtina":"Ловеч"},{"ekatte":"20376","name":"с. Девене","lat":43.40447175,"lng":23.63348945,"oblast":"Враца","obshtina":"Враца"},{"ekatte":"03993","name":"с. Биволаре","lat":43.492439789473686,"lng":24.552297684210526,"oblast":"Плевен","obshtina":"Долна Митрополия"},{"ekatte":"53148","name":"с. Овен","lat":43.8100229375,"lng":27.066406625,"oblast":"Силистра","obshtina":"Дулово"},{"ekatte":"20383","name":"с. Девенци","lat":43.31882294444444,"lng":24.156478055555553,"oblast":"Плевен","obshtina":"Червен бряг"},{"ekatte":"69537","name":"с. Стояново","lat":43.2540779375,"lng":23.3287696875,"oblast":"Монтана","obshtina":"Вършец"},{"ekatte":"04008","name":"с. Биволяне","lat":41.57919105263158,"lng":25.50473089473684,"oblast":"Кърджали","obshtina":"Момчилград"},{"ekatte":"20393","name":"с. Девесилица","lat":41.373781083333334,"lng":25.691187833333334,"oblast":"Кърджали","obshtina":"Крумовград"},{"ekatte":"36779","name":"гр. Кермен","lat":42.493730322580646,"lng":26.265226967741935,"oblast":"Сливен","obshtina":"Сливен"},{"ekatte":"36782","name":"с. Кесарево","lat":43.146712575757576,"lng":25.981172393939396,"oblast":"Велико Търново","obshtina":"Стражица"},{"ekatte":"69554","name":"с. Стояновци","lat":43.12242088888889,"lng":24.003725777777777,"oblast":"Враца","obshtina":"Роман"},{"ekatte":"20403","name":"с. Девесилово","lat":41.3331013125,"lng":25.668914375,"oblast":"Кърджали","obshtina":"Крумовград"},{"ekatte":"04025","name":"с. Бижовци","lat":42.89947247692307,"lng":25.47213092307692,"oblast":"Габрово","obshtina":"Трявна"},{"ekatte":"53179","name":"с. Овощник","lat":42.596131428571425,"lng":25.447996857142858,"oblast":"Стара Загора","obshtina":"Казанлък"},{"ekatte":"36796","name":"с. Кестен","lat":41.551066523809524,"lng":24.438431190476187,"oblast":"Смолян","obshtina":"Девин"},{"ekatte":"53182","name":"с. Овчага","lat":43.169254375,"lng":27.345836625,"oblast":"Варна","obshtina":"Провадия"},{"ekatte":"20417","name":"с. Деветак","lat":42.568968740740736,"lng":26.84377896296296,"oblast":"Бургас","obshtina":"Карнобат"},{"ekatte":"69571","name":"с. Страдалово","lat":42.125744347826085,"lng":22.750257565217392,"oblast":"Кюстендил","obshtina":"Невестино"},{"ekatte":"20420","name":"с. Деветаки","lat":43.20900796551724,"lng":24.916755137931037,"oblast":"Ловеч","obshtina":"Ловеч"},{"ekatte":"36806","name":"с. Кестеново","lat":43.10853685714285,"lng":26.546597214285715,"oblast":"Търговище","obshtina":"Омуртаг"},{"ekatte":"04039","name":"с. Биково","lat":42.47575329166667,"lng":26.19778079166667,"oblast":"Сливен","obshtina":"Сливен"},{"ekatte":"04042","name":"с. Билинци","lat":42.79489341666667,"lng":22.81843225,"oblast":"Перник","obshtina":"Брезник"},{"ekatte":"53196","name":"с. Овча могила","lat":43.436196375,"lng":25.273021333333332,"oblast":"Велико Търново","obshtina":"Свищов"},{"ekatte":"69585","name":"с. Стража","lat":41.59371466666666,"lng":24.788919583333335,"oblast":"Смолян","obshtina":"Смолян"},{"ekatte":"53206","name":"с. Овчари","lat":41.449434333333336,"lng":25.654851583333336,"oblast":"Кърджали","obshtina":"Крумовград"},{"ekatte":"04056","name":"с. Билка","lat":42.93268976190476,"lng":27.24365633333333,"oblast":"Бургас","obshtina":"Руен"},{"ekatte":"53210","name":"с. Овчарово","lat":43.69973093333333,"lng":27.835009866666667,"oblast":"Добрич","obshtina":"Добрич-селска"},{"ekatte":"69599","name":"с. Стража","lat":43.194149,"lng":26.571454,"oblast":"Търговище","obshtina":"Търговище"},{"ekatte":"20448","name":"с. Деветинци","lat":42.604793421052634,"lng":26.815558684210526,"oblast":"Бургас","obshtina":"Карнобат"},{"ekatte":"36837","name":"гр. Килифарево","lat":42.99744233333333,"lng":25.625772285714284,"oblast":"Велико Търново","obshtina":"Велико Търново"},{"ekatte":"53223","name":"с. Овчарово","lat":43.181519,"lng":26.64627152631579,"oblast":"Търговище","obshtina":"Търговище"},{"ekatte":"69612","name":"с. Стражевци","lat":41.63824694444444,"lng":25.263024944444442,"oblast":"Кърджали","obshtina":"Кърджали"},{"ekatte":"20465","name":"гр. Девин","lat":41.74875005357143,"lng":24.401512625000002,"oblast":"Смолян","obshtina":"Девин"},{"ekatte":"53237","name":"с. Овчарово","lat":42.010220296296296,"lng":25.99819437037037,"oblast":"Хасково","obshtina":"Харманли"},{"ekatte":"36854","name":"с. Кипилово","lat":42.889801500000004,"lng":26.266654272727273,"oblast":"Сливен","obshtina":"Котел"},{"ekatte":"53240","name":"с. Овчарово","lat":43.20218104347826,"lng":27.115149913043478,"oblast":"Шумен","obshtina":"Шумен"},{"ekatte":"04090","name":"с. Било","lat":43.64865723076923,"lng":28.402893615384617,"oblast":"Добрич","obshtina":"Каварна"},{"ekatte":"86012","name":"с. Югово","lat":41.882182392857146,"lng":24.80818382142857,"oblast":"Пловдив","obshtina":"Лъки"},{"ekatte":"20479","name":"с. Девино","lat":43.13479853333333,"lng":26.119600866666666,"oblast":"Търговище","obshtina":"Антоново"},{"ekatte":"69633","name":"гр. Стражица","lat":43.237362499999996,"lng":25.971215823529413,"oblast":"Велико Търново","obshtina":"Стражица"},{"ekatte":"20482","name":"гр. Девня","lat":43.21787748979592,"lng":27.59077151020408,"oblast":"Варна","obshtina":"Девня"},{"ekatte":"36868","name":"с. Кипра","lat":43.250070875,"lng":27.623831875,"oblast":"Варна","obshtina":"Девня"},{"ekatte":"53254","name":"с. Овчарци","lat":42.26594983333333,"lng":23.240952000000004,"oblast":"Кюстендил","obshtina":"Сапарева баня"},{"ekatte":"86026","name":"с. Юделник","lat":43.87502493333333,"lng":26.249146333333332,"oblast":"Русе","obshtina":"Сливо поле"},{"ekatte":"69643","name":"с. Стражица","lat":43.448412166666664,"lng":28.104895666666668,"oblast":"Добрич","obshtina":"Балчик"},{"ekatte":"86030","name":"с. Върхари","lat":41.543941545454544,"lng":25.382679363636363,"oblast":"Кърджали","obshtina":"Момчилград"},{"ekatte":"20496","name":"с. Дедец","lat":41.38477257142857,"lng":25.229414285714284,"oblast":"Кърджали","obshtina":"Кирково"},{"ekatte":"04114","name":"с. Бинкос","lat":42.65142006666667,"lng":26.099836333333332,"oblast":"Сливен","obshtina":"Сливен"},{"ekatte":"53268","name":"с. Овчарци","lat":42.20357595652174,"lng":26.055620260869567,"oblast":"Стара Загора","obshtina":"Раднево"},{"ekatte":"36885","name":"с. Киреево","lat":43.806141392857135,"lng":22.4006405,"oblast":"Видин","obshtina":"Макреш"},{"ekatte":"53271","name":"с. Овчево","lat":41.45883166666667,"lng":25.312630555555554,"oblast":"Кърджали","obshtina":"Джебел"},{"ekatte":"69657","name":"с. Стражница","lat":41.7115974,"lng":25.3572121,"oblast":"Кърджали","obshtina":"Черноочене"},{"ekatte":"86043","name":"с. Юлиево","lat":42.5573221,"lng":25.6052103,"oblast":"Стара Загора","obshtina":"Мъглиж"},{"ekatte":"69660","name":"гр. Стралджа","lat":42.620026714285714,"lng":26.708355714285716,"oblast":"Ямбол","obshtina":"Стралджа"},{"ekatte":"04128","name":"с. Бисер","lat":41.86543860869565,"lng":25.992719739130433,"oblast":"Хасково","obshtina":"Харманли"},{"ekatte":"20514","name":"с. Дединци","lat":43.02334837037037,"lng":25.93710940740741,"oblast":"Велико Търново","obshtina":"Златарица"},{"ekatte":"04131","name":"с. Бисерци","lat":43.88516573333333,"lng":26.506296233333334,"oblast":"Разград","obshtina":"Кубрат"},{"ekatte":"36899","name":"с. Кирилово","lat":42.371783739130436,"lng":25.52049247826087,"oblast":"Стара Загора","obshtina":"Стара Загора"},{"ekatte":"53285","name":"с. Овчеполци","lat":42.32911325,"lng":24.424692142857143,"oblast":"Пазарджик","obshtina":"Пазарджик"},{"ekatte":"86057","name":"с. Юнак","lat":43.07279285714286,"lng":27.62293042857143,"oblast":"Варна","obshtina":"Аврен"},{"ekatte":"69674","name":"с. Странджа","lat":42.06199008108108,"lng":26.992279243243242,"oblast":"Ямбол","obshtina":"Болярово"},{"ekatte":"20523","name":"с. Дедово","lat":41.98944510526316,"lng":24.654437,"oblast":"Пловдив","obshtina":"Родопи"},{"ekatte":"36909","name":"с. Кирилово","lat":42.22241719230769,"lng":26.620591038461537,"oblast":"Ямбол","obshtina":"Елхово"},{"ekatte":"04145","name":"с. Бистра","lat":43.84266022222222,"lng":27.372486166666665,"oblast":"Силистра","obshtina":"Алфатар"},{"ekatte":"53299","name":"с. Овчи кладенец","lat":42.236545517241375,"lng":26.211956827586206,"oblast":"Ямбол","obshtina":"Тунджа"},{"ekatte":"69688","name":"с. Странджево","lat":41.63811507142857,"lng":25.768703428571428,"oblast":"Кърджали","obshtina":"Крумовград"},{"ekatte":"20537","name":"с. Деков","lat":43.59222925,"lng":25.12287095,"oblast":"Плевен","obshtina":"Белене"},{"ekatte":"86074","name":"с. Юнаците","lat":42.23870561111111,"lng":24.27961227777778,"oblast":"Пазарджик","obshtina":"Пазарджик"},{"ekatte":"69691","name":"с. Странско","lat":42.15734258333333,"lng":25.59918875,"oblast":"Хасково","obshtina":"Димитровград"},{"ekatte":"20540","name":"с. Делвино","lat":42.02023453846154,"lng":23.134133000000002,"oblast":"Благоевград","obshtina":"Благоевград"},{"ekatte":"53309","name":"с. Оглед","lat":41.444390399999996,"lng":24.838142866666665,"oblast":"Смолян","obshtina":"Рудозем"},{"ekatte":"36926","name":"с. Кирково","lat":41.33579381818182,"lng":25.36956572727273,"oblast":"Кърджали","obshtina":"Кирково"},{"ekatte":"04159","name":"с. Бистра","lat":43.329829076923076,"lng":26.562050923076924,"oblast":"Търговище","obshtina":"Търговище"},{"ekatte":"53312","name":"с. Огнен","lat":42.68379566666667,"lng":26.825223888888885,"oblast":"Бургас","obshtina":"Карнобат"},{"ekatte":"04162","name":"с. Бистренци","lat":43.41555771428572,"lng":25.81203904761905,"oblast":"Русе","obshtina":"Бяла"},{"ekatte":"69701","name":"с. Страхил","lat":43.50923188235294,"lng":27.61409429411765,"oblast":"Варна","obshtina":"Вълчи дол"},{"ekatte":"86088","name":"с. Юнец","lat":42.92706611764706,"lng":27.749354176470586,"oblast":"Варна","obshtina":"Долни чифлик"},{"ekatte":"20554","name":"с. Делвино","lat":41.377407363636365,"lng":25.467084727272724,"oblast":"Кърджали","obshtina":"Кирково"},{"ekatte":"36938","name":"с. Кирово","lat":42.15956932608696,"lng":27.213319000000002,"oblast":"Бургас","obshtina":"Средец"},{"ekatte":"86091","name":"с. Юпер","lat":43.91550934782609,"lng":26.412101000000003,"oblast":"Разград","obshtina":"Кубрат"},{"ekatte":"53326","name":"с. Огняново","lat":41.6183893125,"lng":23.788891875,"oblast":"Благоевград","obshtina":"Гърмен"},{"ekatte":"36943","name":"с. Кирчево","lat":42.98312703571429,"lng":24.354124142857142,"oblast":"Ловеч","obshtina":"Угърчин"},{"ekatte":"04176","name":"с. Бистрец","lat":42.31246326923077,"lng":27.009524730769233,"oblast":"Бургас","obshtina":"Средец"},{"ekatte":"69715","name":"с. Страхил войвода","lat":41.69025842857143,"lng":25.635370642857144,"oblast":"Кърджали","obshtina":"Кърджали"},{"ekatte":"86101","name":"с. Юруково","lat":41.98941923809524,"lng":23.63040557142857,"oblast":"Благоевград","obshtina":"Якоруда"},{"ekatte":"53335","name":"с. Огняново","lat":42.137221952380955,"lng":24.413936857142858,"oblast":"Пазарджик","obshtina":"Пазарджик"},{"ekatte":"20568","name":"с. Делейна","lat":44.06153422727272,"lng":22.639267045454545,"oblast":"Видин","obshtina":"Брегово"},{"ekatte":"36957","name":"с. Киселево","lat":43.65497468181818,"lng":22.9936125,"oblast":"Монтана","obshtina":"Брусарци"},{"ekatte":"53343","name":"с. Огняново","lat":42.608111739130436,"lng":23.75395847826087,"oblast":"София","obshtina":"Елин Пелин"},{"ekatte":"36960","name":"с. Киселица","lat":42.5553199,"lng":22.488563300000003,"oblast":"Кюстендил","obshtina":"Трекляно"},{"ekatte":"04193","name":"с. Бистрец","lat":43.844421571428576,"lng":27.727891714285715,"oblast":"Добрич","obshtina":"Крушари"},{"ekatte":"69729","name":"с. Страхилица","lat":43.474655,"lng":26.9106734,"oblast":"Шумен","obshtina":"Венец"},{"ekatte":"86115","name":"с. Юндола","lat":42.072534764705885,"lng":23.85050882352941,"oblast":"Пазарджик","obshtina":"Велинград"},{"ekatte":"69732","name":"с. Страхилово","lat":43.40806796875,"lng":25.55271103125,"oblast":"Велико Търново","obshtina":"Полски Тръмбеш"},{"ekatte":"20585","name":"с. Делчево","lat":41.54026854166667,"lng":23.674413958333332,"oblast":"Благоевград","obshtina":"Гоце Делчев"},{"ekatte":"04203","name":"с. Бистрилица","lat":43.36149318181818,"lng":23.095577363636366,"oblast":"Монтана","obshtina":"Берковица"},{"ekatte":"53357","name":"с. Огняново","lat":43.906614142857144,"lng":27.65239657142857,"oblast":"Добрич","obshtina":"Крушари"},{"ekatte":"36974","name":"с. Киселчово","lat":41.53826152173913,"lng":24.579524217391306,"oblast":"Смолян","obshtina":"Смолян"},{"ekatte":"69746","name":"с. Страцин","lat":42.77202617647059,"lng":27.473109705882354,"oblast":"Бургас","obshtina":"Поморие"},{"ekatte":"20599","name":"с. Дебелец","lat":42.95461430952381,"lng":27.444815023809525,"oblast":"Варна","obshtina":"Дългопол"},{"ekatte":"04217","name":"с. Бистрица","lat":42.04358132258064,"lng":23.281693870967743,"oblast":"Благоевград","obshtina":"Благоевград"},{"ekatte":"04220","name":"с. Бистрица","lat":42.207458708333334,"lng":23.20900429166667,"oblast":"Кюстендил","obshtina":"Дупница"},{"ekatte":"53374","name":"с. Огоя","lat":42.89901662857143,"lng":23.534405542857144,"oblast":"София","obshtina":"Своге"},{"ekatte":"69759","name":"с. Страшимир","lat":41.43725128571429,"lng":24.978273142857145,"oblast":"Смолян","obshtina":"Златоград"},{"ekatte":"20609","name":"с. Делчево","lat":43.71247592307692,"lng":26.971470384615387,"oblast":"Разград","obshtina":"Исперих"},{"ekatte":"69763","name":"с. Страшимирово","lat":43.20661015384615,"lng":27.73452569230769,"oblast":"Варна","obshtina":"Белослав"},{"ekatte":"20612","name":"с. Делян","lat":42.38100758823529,"lng":23.114062529411765,"oblast":"Кюстендил","obshtina":"Дупница"},{"ekatte":"04234","name":"с. Бистрица","lat":42.577128548387094,"lng":23.347237322580646,"oblast":"София (столица)","obshtina":"Столична"},{"ekatte":"53388","name":"с. Оградна","lat":41.500400454545456,"lng":25.03723509090909,"oblast":"Смолян","obshtina":"Неделино"},{"ekatte":"53391","name":"с. Огражден","lat":43.792169111111114,"lng":28.066852222222224,"oblast":"Добрич","obshtina":"Генерал Тошево"},{"ekatte":"69777","name":"с. Стрезимировци","lat":42.80610316666667,"lng":22.45384,"oblast":"Перник","obshtina":"Трън"},{"ekatte":"20626","name":"с. Делян","lat":42.76670585714286,"lng":23.004075214285713,"oblast":"София","obshtina":"Божурище"},{"ekatte":"37010","name":"с. Китанчево","lat":43.73940970833333,"lng":26.899000333333333,"oblast":"Разград","obshtina":"Исперих"},{"ekatte":"69780","name":"с. Стрелец","lat":43.31113540909091,"lng":25.749521954545457,"oblast":"Велико Търново","obshtina":"Горна Оряховица"},{"ekatte":"20630","name":"с. Деляновци","lat":43.4442515,"lng":25.15344675,"oblast":"Велико Търново","obshtina":"Свищов"},{"ekatte":"04248","name":"с. Бистроглед","lat":41.562465625,"lng":25.1297085,"oblast":"Кърджали","obshtina":"Ардино"},{"ekatte":"53401","name":"с. Одоровци","lat":43.5795498,"lng":22.959346399999998,"oblast":"Монтана","obshtina":"Брусарци"},{"ekatte":"04251","name":"с. Благово","lat":43.35360206666667,"lng":23.241194266666664,"oblast":"Монтана","obshtina":"Монтана"},{"ekatte":"37023","name":"гр. Китен","lat":42.23854865,"lng":27.73528785,"oblast":"Бургас","obshtina":"Приморско"},{"ekatte":"69794","name":"с. Стрелец","lat":42.29135111764706,"lng":25.731265235294117,"oblast":"Стара Загора","obshtina":"Стара Загора"},{"ekatte":"20643","name":"с. Денница","lat":43.474745375,"lng":26.8654165,"oblast":"Шумен","obshtina":"Венец"},{"ekatte":"53415","name":"с. Одраница","lat":42.652269727272724,"lng":22.64760481818182,"oblast":"Перник","obshtina":"Земен"},{"ekatte":"04265","name":"с. Благово","lat":43.220428000000005,"lng":27.0582,"oblast":"Шумен","obshtina":"Шумен"},{"ekatte":"69804","name":"с. Стрелково","lat":43.937660625,"lng":27.443549625,"oblast":"Силистра","obshtina":"Кайнарджа"},{"ekatte":"37037","name":"с. Китен","lat":43.084533875,"lng":27.3145718125,"oblast":"Варна","obshtina":"Провадия"},{"ekatte":"37040","name":"с. Китино","lat":43.18151823529412,"lng":26.37330488235294,"oblast":"Търговище","obshtina":"Антоново"},{"ekatte":"20657","name":"с. Денница","lat":42.26245,"lng":26.86742586363636,"oblast":"Ямбол","obshtina":"Болярово"},{"ekatte":"20660","name":"с. Денчевци","lat":43.004360294117646,"lng":25.43815523529412,"oblast":"Габрово","obshtina":"Дряново"},{"ekatte":"53429","name":"с. Одринци","lat":41.43520016666667,"lng":26.13723872222222,"oblast":"Хасково","obshtina":"Ивайловград"},{"ekatte":"04279","name":"гр. Благоевград","lat":42.01140789285714,"lng":23.09497185714286,"oblast":"Благоевград","obshtina":"Благоевград"},{"ekatte":"53432","name":"с. Одринци","lat":43.53249564705882,"lng":27.724282176470588,"oblast":"Добрич","obshtina":"Добрич-селска"},{"ekatte":"04282","name":"с. Благоево","lat":43.19197133333333,"lng":25.950795533333334,"oblast":"Велико Търново","obshtina":"Стражица"},{"ekatte":"69818","name":"с. Стрелци","lat":42.39732983333334,"lng":24.914822041666667,"oblast":"Пловдив","obshtina":"Брезово"},{"ekatte":"69821","name":"с. Стрелци","lat":42.94642155555556,"lng":26.292648925925928,"oblast":"Сливен","obshtina":"Котел"},{"ekatte":"20674","name":"с. Дервишка могила","lat":41.928678459459455,"lng":26.33999637837838,"oblast":"Хасково","obshtina":"Свиленград"},{"ekatte":"53446","name":"с. Одърне","lat":43.36113173333333,"lng":24.941599866666667,"oblast":"Плевен","obshtina":"Пордим"},{"ekatte":"04296","name":"с. Благоево","lat":43.4640683125,"lng":26.4258360625,"oblast":"Разград","obshtina":"Разград"},{"ekatte":"53450","name":"с. Одърци","lat":43.45874626666667,"lng":27.969055866666668,"oblast":"Добрич","obshtina":"Добрич-селска"},{"ekatte":"69835","name":"гр. Стрелча","lat":42.5137874,"lng":24.3392062,"oblast":"Пазарджик","obshtina":"Стрелча"},{"ekatte":"37068","name":"с. Китка","lat":43.047076000000004,"lng":27.776158125,"oblast":"Варна","obshtina":"Аврен"},{"ekatte":"37071","name":"с. Китна","lat":41.36314614285714,"lng":25.253769714285713,"oblast":"Кърджали","obshtina":"Кирково"},{"ekatte":"20688","name":"с. Дерманци","lat":43.160979125,"lng":24.29716859375,"oblast":"Ловеч","obshtina":"Луковит"},{"ekatte":"04306","name":"с. Благун","lat":41.37828463636364,"lng":25.735825363636362,"oblast":"Кърджали","obshtina":"Крумовград"},{"ekatte":"53463","name":"с. Озърновци","lat":42.81539327272728,"lng":22.89554190909091,"oblast":"Перник","obshtina":"Брезник"},{"ekatte":"69849","name":"с. Стремово","lat":41.73180072727273,"lng":25.401305363636364,"oblast":"Кърджали","obshtina":"Кърджали"},{"ekatte":"04314","name":"с. Блажиево","lat":42.2023855,"lng":23.042615833333333,"oblast":"Кюстендил","obshtina":"Бобошево"},{"ekatte":"69852","name":"с. Стремци","lat":41.724827,"lng":25.4152724375,"oblast":"Кърджали","obshtina":"Кърджали"},{"ekatte":"37085","name":"с. Китница","lat":41.69240155,"lng":25.18430465,"oblast":"Кърджали","obshtina":"Ардино"},{"ekatte":"20701","name":"с. Детелина","lat":42.98568175,"lng":27.77091,"oblast":"Варна","obshtina":"Долни чифлик"},{"ekatte":"04323","name":"с. Блатец","lat":42.314946,"lng":22.600821615384614,"oblast":"Кюстендил","obshtina":"Кюстендил"},{"ekatte":"53480","name":"с. Окоп","lat":42.403011666666664,"lng":26.54992766666667,"oblast":"Ямбол","obshtina":"Тунджа"},{"ekatte":"69866","name":"с. Стрижба","lat":41.29390021052632,"lng":25.446687210526317,"oblast":"Кърджали","obshtina":"Кирково"},{"ekatte":"37099","name":"с. Кичево","lat":43.28657023076923,"lng":27.983360192307693,"oblast":"Варна","obshtina":"Аксаково"},{"ekatte":"04337","name":"с. Блатец","lat":42.65531178787879,"lng":26.527121393939392,"oblast":"Сливен","obshtina":"Сливен"},{"ekatte":"69874","name":"с. Строево","lat":42.25660761904762,"lng":24.679861476190478,"oblast":"Пловдив","obshtina":"Марица"},{"ekatte":"04340","name":"с. Блатешница","lat":42.441990652173914,"lng":22.781038869565215,"oblast":"Перник","obshtina":"Земен"},{"ekatte":"37109","name":"с. Киченица","lat":43.608937153846156,"lng":26.511465615384616,"oblast":"Разград","obshtina":"Разград"},{"ekatte":"53494","name":"с. Окорш","lat":43.74324541666667,"lng":27.0195805,"oblast":"Силистра","obshtina":"Дулово"},{"ekatte":"69883","name":"с. Стройно","lat":42.2822248,"lng":26.679678733333333,"oblast":"Ямбол","obshtina":"Елхово"},{"ekatte":"20732","name":"с. Джанка","lat":41.54773813636364,"lng":25.672882,"oblast":"Кърджали","obshtina":"Крумовград"},{"ekatte":"53504","name":"с. Оман","lat":42.274198391304346,"lng":26.91906826086956,"oblast":"Ямбол","obshtina":"Болярово"},{"ekatte":"04354","name":"с. Блатино","lat":42.299019615384616,"lng":23.09430769230769,"oblast":"Кюстендил","obshtina":"Дупница"},{"ekatte":"37126","name":"с. Кладенец","lat":41.741558600000005,"lng":25.668129399999998,"oblast":"Хасково","obshtina":"Стамболово"},{"ekatte":"20746","name":"гр. Джебел","lat":41.49803092857143,"lng":25.302745357142857,"oblast":"Кърджали","obshtina":"Джебел"},{"ekatte":"53518","name":"с. Омарчево","lat":42.46070047999999,"lng":26.13974604,"oblast":"Сливен","obshtina":"Нова Загора"},{"ekatte":"37135","name":"с. Кладенец","lat":43.16617153333333,"lng":27.17225493333333,"oblast":"Шумен","obshtina":"Шумен"},{"ekatte":"04368","name":"с. Блатница","lat":42.37771590476191,"lng":24.421323904761906,"oblast":"Пазарджик","obshtina":"Стрелча"},{"ekatte":"53521","name":"с. Омарчево","lat":43.5554688,"lng":27.051854199999998,"oblast":"Шумен","obshtina":"Каолиново"},{"ekatte":"04371","name":"с. Блато","lat":42.239032249999994,"lng":22.9341322,"oblast":"Кюстендил","obshtina":"Бобов дол"},{"ekatte":"20755","name":"с. Джелепско","lat":41.504419999999996,"lng":25.524839230769228,"oblast":"Кърджали","obshtina":"Момчилград"},{"ekatte":"69910","name":"с. Струиндол","lat":43.6693594375,"lng":22.582540875,"oblast":"Видин","obshtina":"Белоградчик"},{"ekatte":"37143","name":"с. Кладенци","lat":41.41351836363636,"lng":23.053161181818183,"oblast":"Благоевград","obshtina":"Петрич"},{"ekatte":"20763","name":"с. Джерман","lat":42.211763142857144,"lng":23.108689071428568,"oblast":"Кюстендил","obshtina":"Дупница"},{"ekatte":"53535","name":"гр. Омуртаг","lat":43.10550907407407,"lng":26.417076296296297,"oblast":"Търговище","obshtina":"Омуртаг"},{"ekatte":"69924","name":"с. Струино","lat":43.360500214285715,"lng":26.856648214285713,"oblast":"Шумен","obshtina":"Шумен"},{"ekatte":"37157","name":"с. Кладенци","lat":43.68757476923077,"lng":27.246201923076924,"oblast":"Добрич","obshtina":"Тервел"},{"ekatte":"20777","name":"с. Джерово","lat":41.31888858333333,"lng":25.30863583333333,"oblast":"Кърджали","obshtina":"Кирково"},{"ekatte":"20780","name":"с. Джигурово","lat":41.564524176470584,"lng":23.32965029411765,"oblast":"Благоевград","obshtina":"Сандански"},{"ekatte":"53549","name":"с. Оногур","lat":43.82701990909091,"lng":27.585984727272727,"oblast":"Добрич","obshtina":"Тервел"},{"ekatte":"04399","name":"с. Блатска","lat":41.5335346,"lng":23.878559600000003,"oblast":"Благоевград","obshtina":"Хаджидимово"},{"ekatte":"53552","name":"гр. Опака","lat":43.45024733333333,"lng":26.163694575757575,"oblast":"Търговище","obshtina":"Опака"},{"ekatte":"69938","name":"с. Струма","lat":41.54296766666667,"lng":23.228961583333334,"oblast":"Благоевград","obshtina":"Сандански"},{"ekatte":"69941","name":"с. Струмешница","lat":41.398505444444446,"lng":23.042308777777777,"oblast":"Благоевград","obshtina":"Петрич"},{"ekatte":"37174","name":"с. Кладница","lat":42.55626766666666,"lng":23.196691814814816,"oblast":"Перник","obshtina":"Перник"},{"ekatte":"04409","name":"с. Бленика","lat":41.676040923076926,"lng":25.324904,"oblast":"Кърджали","obshtina":"Кърджали"},{"ekatte":"04412","name":"с. Близнак","lat":42.157821625000004,"lng":27.301498149999997,"oblast":"Бургас","obshtina":"Малко Търново"},{"ekatte":"20804","name":"с. Джинот","lat":42.51769725,"lng":26.6621458125,"oblast":"Ямбол","obshtina":"Стралджа"},{"ekatte":"37188","name":"с. Кладоруб","lat":43.723478799999995,"lng":22.65527315,"oblast":"Видин","obshtina":"Димово"},{"ekatte":"37191","name":"с. Клепало","lat":41.628905499999995,"lng":22.969283714285716,"oblast":"Благоевград","obshtina":"Струмяни"},{"ekatte":"53576","name":"с. Опан","lat":42.21493786956522,"lng":25.685131826086955,"oblast":"Стара Загора","obshtina":"Опан"},{"ekatte":"04426","name":"с. Близнаци","lat":43.05964039285714,"lng":27.871173357142855,"oblast":"Варна","obshtina":"Аврен"},{"ekatte":"04430","name":"с. Близнаци","lat":43.4677945,"lng":26.949973,"oblast":"Шумен","obshtina":"Хитрино"},{"ekatte":"53583","name":"с. Опанец","lat":43.460882545454545,"lng":24.578326545454544,"oblast":"Плевен","obshtina":"Плевен"},{"ekatte":"37201","name":"с. Кликач","lat":42.724062304347825,"lng":27.06967443478261,"oblast":"Бургас","obshtina":"Карнобат"},{"ekatte":"20818","name":"с. Джинчовци","lat":42.787490428571424,"lng":22.467615857142857,"oblast":"Перник","obshtina":"Трън"},{"ekatte":"69969","name":"с. Струмяни","lat":41.637729285714286,"lng":23.203491000000003,"oblast":"Благоевград","obshtina":"Струмяни"},{"ekatte":"69972","name":"с. Струпец","lat":43.12330517647059,"lng":23.883837294117647,"oblast":"Враца","obshtina":"Роман"},{"ekatte":"04443","name":"с. Близнец","lat":42.6357855,"lng":26.059759500000002,"oblast":"Сливен","obshtina":"Твърдица"},{"ekatte":"53597","name":"с. Опанец","lat":43.49158669230769,"lng":27.776897692307692,"oblast":"Добрич","obshtina":"Добрич-селска"},{"ekatte":"37215","name":"с. Климаш","lat":42.7708392,"lng":26.915029600000004,"oblast":"Бургас","obshtina":"Сунгурларе"},{"ekatte":"69986","name":"с. Струпец","lat":42.61554753846154,"lng":26.112853884615387,"oblast":"Сливен","obshtina":"Сливен"},{"ekatte":"20835","name":"с. Джулюница","lat":43.141940999999996,"lng":25.905451633333332,"oblast":"Велико Търново","obshtina":"Лясковец"},{"ekatte":"69990","name":"с. Струя","lat":42.96415905,"lng":27.25814125,"oblast":"Бургас","obshtina":"Руен"},{"ekatte":"53607","name":"с. Опицвет","lat":42.86414895454545,"lng":23.089365136363636,"oblast":"София","obshtina":"Костинброд"},{"ekatte":"04457","name":"с. Блъсково","lat":43.108102821428574,"lng":27.31502157142857,"oblast":"Варна","obshtina":"Провадия"},{"ekatte":"53610","name":"с. Оплетня","lat":43.1110507368421,"lng":23.450782421052633,"oblast":"София","obshtina":"Своге"},{"ekatte":"04460","name":"с. Блъсковци","lat":42.95826577966101,"lng":25.849323559322038,"oblast":"Велико Търново","obshtina":"Елена"},{"ekatte":"37229","name":"с. Климент","lat":42.582840227272726,"lng":24.669792227272726,"oblast":"Пловдив","obshtina":"Карлово"},{"ekatte":"37232","name":"с. Климент","lat":43.62926865,"lng":26.99934255,"oblast":"Шумен","obshtina":"Каолиново"},{"ekatte":"20849","name":"с. Джулюница","lat":43.568387933333334,"lng":25.604488733333334,"oblast":"Русе","obshtina":"Ценово"},{"ekatte":"53624","name":"с. Опълченец","lat":42.2135352,"lng":25.115404133333335,"oblast":"Стара Загора","obshtina":"Братя Даскалови"},{"ekatte":"70010","name":"с. Стряма","lat":42.25941108695652,"lng":24.865331652173914,"oblast":"Пловдив","obshtina":"Раковски"},{"ekatte":"37246","name":"с. Климентово","lat":43.34451664,"lng":27.94277492,"oblast":"Варна","obshtina":"Аксаково"},{"ekatte":"53638","name":"с. Опълченско","lat":41.602469,"lng":25.35960053846154,"oblast":"Кърджали","obshtina":"Кърджали"},{"ekatte":"70024","name":"с. Стубел","lat":43.399528318181815,"lng":23.342427590909093,"oblast":"Монтана","obshtina":"Монтана"},{"ekatte":"53641","name":"с. Орач","lat":43.11472366666666,"lng":26.201753083333333,"oblast":"Търговище","obshtina":"Антоново"},{"ekatte":"04491","name":"с. Бобешино","lat":42.31301664285714,"lng":22.428809285714287,"oblast":"Кюстендил","obshtina":"Кюстендил"},{"ekatte":"37263","name":"с. Клисура","lat":42.006973611111114,"lng":22.889148166666665,"oblast":"Благоевград","obshtina":"Благоевград"},{"ekatte":"20883","name":"с. Джурково","lat":41.773752611111114,"lng":24.820052222222223,"oblast":"Пловдив","obshtina":"Лъки"},{"ekatte":"04501","name":"гр. Бобов дол","lat":42.37749188888889,"lng":23.00356577777778,"oblast":"Кюстендил","obshtina":"Бобов дол"},{"ekatte":"70038","name":"с. Студена","lat":42.54154208695652,"lng":23.11364760869565,"oblast":"Перник","obshtina":"Перник"},{"ekatte":"53655","name":"с. Ореховица","lat":43.574843128205124,"lng":24.37875694871795,"oblast":"Плевен","obshtina":"Долна Митрополия"},{"ekatte":"70041","name":"с. Студена","lat":41.581977055555555,"lng":24.9603225,"oblast":"Смолян","obshtina":"Мадан"},{"ekatte":"37277","name":"гр. Клисура","lat":42.686830566037735,"lng":24.451754188679246,"oblast":"Пловдив","obshtina":"Карлово"},{"ekatte":"37280","name":"с. Клисура","lat":42.7145805,"lng":23.085813277777778,"oblast":"София (столица)","obshtina":"Столична"},{"ekatte":"20897","name":"с. Джурово","lat":42.954131411764706,"lng":24.057441823529413,"oblast":"София","obshtina":"Правец"},{"ekatte":"04515","name":"с. Бобовец","lat":43.4364815,"lng":28.079667,"oblast":"Добрич","obshtina":"Балчик"},{"ekatte":"53669","name":"с. Орехово","lat":41.85061977777778,"lng":24.593022666666666,"oblast":"Смолян","obshtina":"Чепеларе"},{"ekatte":"70055","name":"с. Студена","lat":41.925172545454544,"lng":26.41940475757576,"oblast":"Хасково","obshtina":"Свиленград"},{"ekatte":"53672","name":"с. Ореш","lat":43.57845072727273,"lng":25.235582212121212,"oblast":"Велико Търново","obshtina":"Свищов"},{"ekatte":"20910","name":"с. Зорница","lat":41.48436857142857,"lng":23.365239142857142,"oblast":"Благоевград","obshtina":"Сандански"},{"ekatte":"37294","name":"с. Клисура","lat":42.32339329166667,"lng":23.353651541666665,"oblast":"София","obshtina":"Самоков"},{"ekatte":"04529","name":"с. Бобораци","lat":42.47804107142857,"lng":22.965906,"oblast":"Перник","obshtina":"Радомир"},{"ekatte":"04532","name":"гр. Бобошево","lat":42.154496900000005,"lng":23.014909166666666,"oblast":"Кюстендил","obshtina":"Бобошево"},{"ekatte":"70069","name":"с. Студенец","lat":43.4314024375,"lng":26.6044516875,"oblast":"Разград","obshtina":"Лозница"},{"ekatte":"37304","name":"с. Клисурица","lat":43.51874515789474,"lng":23.055273736842107,"oblast":"Монтана","obshtina":"Монтана"},{"ekatte":"53691","name":"с. Орешак","lat":43.29796643478261,"lng":27.917035956521737,"oblast":"Варна","obshtina":"Аксаково"},{"ekatte":"04546","name":"с. Бов","lat":43.02608456,"lng":23.416763160000002,"oblast":"София","obshtina":"Своге"},{"ekatte":"70086","name":"с. Студен извор","lat":42.7879193,"lng":22.5957926,"oblast":"Перник","obshtina":"Трън"},{"ekatte":"37321","name":"с. Клокотница","lat":41.98716828571429,"lng":25.500302857142856,"oblast":"Хасково","obshtina":"Хасково"},{"ekatte":"20938","name":"с. Дибич","lat":43.22517270588236,"lng":27.000380411764706,"oblast":"Шумен","obshtina":"Шумен"},{"ekatte":"04555","name":"с. Богатово","lat":43.0279575,"lng":25.1722286875,"oblast":"Габрово","obshtina":"Севлиево"},{"ekatte":"53707","name":"с. Орешак","lat":42.87576083333334,"lng":24.785231166666666,"oblast":"Ловеч","obshtina":"Троян"},{"ekatte":"20941","name":"с. Дива Слатина","lat":43.27483575,"lng":22.89800435714286,"oblast":"Монтана","obshtina":"Георги Дамяново"},{"ekatte":"53713","name":"с. Орешари","lat":41.606286375,"lng":25.734191125,"oblast":"Кърджали","obshtina":"Крумовград"},{"ekatte":"04563","name":"с. Богдан","lat":42.641170333333335,"lng":24.6002434,"oblast":"Пловдив","obshtina":"Карлово"},{"ekatte":"70099","name":"с. Студеница","lat":43.44698205882353,"lng":26.75299658823529,"oblast":"Шумен","obshtina":"Хитрино"},{"ekatte":"70104","name":"с. Студен кладенец","lat":41.603608,"lng":25.634266222222223,"oblast":"Кърджали","obshtina":"Крумовград"},{"ekatte":"53727","name":"с. Ореше","lat":41.63317404761905,"lng":23.888297142857144,"oblast":"Благоевград","obshtina":"Гърмен"},{"ekatte":"70113","name":"с. Студено буче","lat":43.468342125,"lng":23.200592375,"oblast":"Монтана","obshtina":"Монтана"},{"ekatte":"53730","name":"с. Орешене","lat":43.101523650000004,"lng":24.08955535,"oblast":"Ловеч","obshtina":"Ябланица"},{"ekatte":"04580","name":"с. Богдан","lat":43.50301685,"lng":27.8106876,"oblast":"Добрич","obshtina":"Добрич-селска"},{"ekatte":"37349","name":"с. Ключ","lat":41.37313765217392,"lng":23.021307608695654,"oblast":"Благоевград","obshtina":"Петрич"},{"ekatte":"37352","name":"с. Кметовци","lat":42.89904810389611,"lng":25.403590402597402,"oblast":"Габрово","obshtina":"Габрово"},{"ekatte":"20972","name":"с. Дивля","lat":42.5753765,"lng":22.678762958333333,"oblast":"Перник","obshtina":"Земен"},{"ekatte":"70127","name":"с. Стъргел","lat":42.78007824137931,"lng":23.865424137931036,"oblast":"София","obshtina":"Горна Малина"},{"ekatte":"53744","name":"с. Орешене","lat":43.7894766875,"lng":26.917099875,"oblast":"Силистра","obshtina":"Дулово"},{"ekatte":"04594","name":"с. Богданица","lat":42.10628582608695,"lng":25.015310913043482,"oblast":"Пловдив","obshtina":"Садово"},{"ekatte":"70130","name":"с. Стърмен","lat":43.4899944,"lng":25.68624605,"oblast":"Русе","obshtina":"Бяла"},{"ekatte":"20986","name":"с. Дивотино","lat":42.66790126086956,"lng":23.068796478260868,"oblast":"Перник","obshtina":"Перник"},{"ekatte":"04604","name":"с. Богданлия","lat":42.6053518,"lng":23.676888133333332,"oblast":"София","obshtina":"Елин Пелин"},{"ekatte":"37376","name":"гр. Кнежа","lat":43.523594410256415,"lng":24.0841841025641,"oblast":"Плевен","obshtina":"Кнежа"},{"ekatte":"53761","name":"с. Орешец","lat":41.878809333333336,"lng":24.94323161111111,"oblast":"Пловдив","obshtina":"Асеновград"},{"ekatte":"20996","name":"с. Дивчовото","lat":42.809056627906976,"lng":24.217601000000002,"oblast":"Ловеч","obshtina":"Тетевен"},{"ekatte":"37383","name":"с. Книжовник","lat":41.82940023809524,"lng":25.59044947619048,"oblast":"Хасково","obshtina":"Хасково"},{"ekatte":"04618","name":"с. Богданов дол","lat":42.62062371428571,"lng":22.974755785714287,"oblast":"Перник","obshtina":"Перник"},{"ekatte":"21004","name":"с. Диманово","lat":41.47753466666667,"lng":25.11127488888889,"oblast":"Смолян","obshtina":"Неделино"},{"ekatte":"04621","name":"с. Богданово","lat":42.254889774999995,"lng":27.271085075000002,"oblast":"Бургас","obshtina":"Средец"},{"ekatte":"70158","name":"с. Стърница","lat":41.684725736842104,"lng":24.907342631578945,"oblast":"Смолян","obshtina":"Баните"},{"ekatte":"53775","name":"с. Орешец","lat":41.75935719230769,"lng":25.912175692307695,"oblast":"Хасково","obshtina":"Харманли"},{"ekatte":"37397","name":"с. Княжева махала","lat":43.698257375,"lng":23.0489206875,"oblast":"Монтана","obshtina":"Брусарци"},{"ekatte":"04635","name":"с. Богданово","lat":42.383581,"lng":26.00883483333333,"oblast":"Сливен","obshtina":"Нова Загора"},{"ekatte":"53789","name":"с. Орешино","lat":41.45695952631579,"lng":26.085742842105265,"oblast":"Хасково","obshtina":"Ивайловград"},{"ekatte":"37407","name":"с. Княжево","lat":42.117944375,"lng":26.50881825,"oblast":"Хасково","obshtina":"Тополовград"},{"ekatte":"53792","name":"с. Орешец","lat":41.61086631999999,"lng":24.800481639999997,"oblast":"Смолян","obshtina":"Смолян"},{"ekatte":"70175","name":"гр. Суворово","lat":43.34317473076923,"lng":27.569787115384617,"oblast":"Варна","obshtina":"Суворово"},{"ekatte":"37410","name":"с. Кобилино","lat":41.50055735,"lng":26.017300249999998,"oblast":"Хасково","obshtina":"Ивайловград"},{"ekatte":"53802","name":"с. Орешник","lat":42.07696806451613,"lng":26.381562548387098,"oblast":"Хасково","obshtina":"Тополовград"},{"ekatte":"70189","name":"с. Сугарево","lat":41.59597959090909,"lng":23.451393590909092,"oblast":"Благоевград","obshtina":"Сандански"},{"ekatte":"37424","name":"с. Кобиляк","lat":43.53924285714286,"lng":23.448349142857143,"oblast":"Монтана","obshtina":"Бойчиновци"},{"ekatte":"53816","name":"с. Орешница","lat":41.6806375,"lng":25.459349166666666,"oblast":"Кърджали","obshtina":"Кърджали"},{"ekatte":"21049","name":"с. Димитриево","lat":42.182565631578946,"lng":25.552817210526317,"oblast":"Стара Загора","obshtina":"Чирпан"},{"ekatte":"04666","name":"с. Богданци","lat":43.612799095238096,"lng":26.80753461904762,"oblast":"Разград","obshtina":"Самуил"},{"ekatte":"70202","name":"с. Сулица","lat":42.44025195454546,"lng":25.482885454545453,"oblast":"Стара Загора","obshtina":"Стара Загора"},{"ekatte":"21052","name":"гр. Димитровград","lat":42.077345682926826,"lng":25.55669973170732,"oblast":"Хасково","obshtina":"Димитровград"},{"ekatte":"04670","name":"с. Богданци","lat":43.99485821052631,"lng":26.773326578947366,"oblast":"Силистра","obshtina":"Главиница"},{"ekatte":"37438","name":"с. Кобиляне","lat":41.60137365,"lng":25.24302395,"oblast":"Кърджали","obshtina":"Кърджали"},{"ekatte":"53822","name":"с. Оризаре","lat":42.75237958333333,"lng":27.635077916666663,"oblast":"Бургас","obshtina":"Несебър"},{"ekatte":"53833","name":"с. Оризари","lat":42.1435415625,"lng":24.652292,"oblast":"Пловдив","obshtina":"Родопи"},{"ekatte":"04683","name":"с. Богданчовци","lat":42.837385,"lng":25.3632365,"oblast":"Габрово","obshtina":"Габрово"},{"ekatte":"70220","name":"с. Царевци","lat":43.09228591666667,"lng":27.570295333333334,"oblast":"Варна","obshtina":"Аврен"},{"ekatte":"37455","name":"с. Ковач","lat":42.29411922222222,"lng":25.847424222222223,"oblast":"Стара Загора","obshtina":"Раднево"},{"ekatte":"21078","name":"с. Димитровче","lat":41.81451923809524,"lng":26.253549619047618,"oblast":"Хасково","obshtina":"Свиленград"},{"ekatte":"53847","name":"с. Оризари","lat":42.64720359090909,"lng":25.934299499999998,"oblast":"Сливен","obshtina":"Твърдица"},{"ekatte":"04697","name":"с. Богойна","lat":42.86992188888889,"lng":22.663777888888887,"oblast":"Перник","obshtina":"Трън"},{"ekatte":"53850","name":"с. Оризово","lat":42.21162142857143,"lng":25.177456666666664,"oblast":"Стара Загора","obshtina":"Братя Даскалови"},{"ekatte":"21083","name":"с. Победа","lat":43.60788625,"lng":27.918922700000003,"oblast":"Добрич","obshtina":"Добрич-селска"},{"ekatte":"70233","name":"с. Сумер","lat":43.33108055555555,"lng":23.33150622222222,"oblast":"Монтана","obshtina":"Монтана"},{"ekatte":"37469","name":"с. Ковачевец","lat":43.38221309090909,"lng":26.093867772727275,"oblast":"Търговище","obshtina":"Попово"},{"ekatte":"37472","name":"с. Ковачевица","lat":41.72920861363636,"lng":23.891845113636364,"oblast":"Благоевград","obshtina":"Гърмен"},{"ekatte":"04707","name":"с. Боголин","lat":41.5484257,"lng":23.9599968,"oblast":"Благоевград","obshtina":"Сатовча"},{"ekatte":"70247","name":"гр. Сунгурларе","lat":42.76541873170732,"lng":26.770941829268295,"oblast":"Бургас","obshtina":"Сунгурларе"},{"ekatte":"21097","name":"гр. Димово","lat":43.755549124999995,"lng":22.725456166666664,"oblast":"Видин","obshtina":"Димово"},{"ekatte":"70250","name":"с. Сусам","lat":41.96684714705882,"lng":25.3528515,"oblast":"Хасково","obshtina":"Минерални бани"},{"ekatte":"37486","name":"с. Ковачево","lat":41.53593103448276,"lng":23.501156655172416,"oblast":"Благоевград","obshtina":"Сандански"},{"ekatte":"37491","name":"с. Ковачево","lat":42.2069754117647,"lng":24.20343494117647,"oblast":"Пазарджик","obshtina":"Септември"},{"ekatte":"53878","name":"с. Орлица","lat":41.317670500000006,"lng":25.409125214285716,"oblast":"Кърджали","obshtina":"Кирково"},{"ekatte":"53881","name":"с. Орлова могила","lat":43.552853842105264,"lng":27.606102999999997,"oblast":"Добрич","obshtina":"Добрич-селска"},{"ekatte":"04738","name":"с. Богомилово","lat":42.384216555555554,"lng":25.56453972222222,"oblast":"Стара Загора","obshtina":"Стара Загора"},{"ekatte":"37507","name":"с. Ковачево","lat":42.241324815789476,"lng":26.113625710526314,"oblast":"Стара Загора","obshtina":"Раднево"},{"ekatte":"21124","name":"с. Димовци","lat":42.66836794117647,"lng":25.71737033333333,"oblast":"Стара Загора","obshtina":"Гурково"},{"ekatte":"04741","name":"с. Богомилци","lat":43.495468357142855,"lng":26.73957892857143,"oblast":"Разград","obshtina":"Самуил"},{"ekatte":"70278","name":"с. Суха река","lat":43.13832361538462,"lng":26.93426953846154,"oblast":"Шумен","obshtina":"Велики Преслав"},{"ekatte":"53895","name":"с. Орлов дол","lat":42.11379720588235,"lng":26.197458147058825,"oblast":"Хасково","obshtina":"Тополовград"},{"ekatte":"37513","name":"с. Ковачевци","lat":42.54706229411765,"lng":22.824062823529413,"oblast":"Перник","obshtina":"Ковачевци"},{"ekatte":"70281","name":"с. Сухаче","lat":43.32294511538461,"lng":23.984849884615382,"oblast":"Плевен","obshtina":"Червен бряг"},{"ekatte":"53905","name":"с. Орловец","lat":43.359066363636366,"lng":25.74055,"oblast":"Велико Търново","obshtina":"Полски Тръмбеш"},{"ekatte":"21138","name":"с. Димча","lat":43.21645770833334,"lng":25.217021666666668,"oblast":"Велико Търново","obshtina":"Павликени"},{"ekatte":"04755","name":"с. Богомолско","lat":43.045700857142855,"lng":26.1108265,"oblast":"Търговище","obshtina":"Антоново"},{"ekatte":"21141","name":"с. Димчево","lat":42.40437405263158,"lng":27.406791421052628,"oblast":"Бургас","obshtina":"Бургас"},{"ekatte":"37527","name":"с. Ковачевци","lat":42.427628725490194,"lng":23.29453231372549,"oblast":"София","obshtina":"Самоков"},{"ekatte":"70295","name":"гр. Сухиндол","lat":43.19466346428572,"lng":25.172989535714287,"oblast":"Велико Търново","obshtina":"Сухиндол"},{"ekatte":"37530","name":"с. Ковачите","lat":42.587414,"lng":26.231995916666666,"oblast":"Сливен","obshtina":"Сливен"},{"ekatte":"53919","name":"с. Орлово","lat":42.99175772727273,"lng":26.473159545454543,"oblast":"Сливен","obshtina":"Котел"},{"ekatte":"21155","name":"с. Динево","lat":41.88986909677419,"lng":25.703643387096776,"oblast":"Хасково","obshtina":"Хасково"},{"ekatte":"04772","name":"с. Богорово","lat":44.01278576470588,"lng":27.38062094117647,"oblast":"Силистра","obshtina":"Силистра"},{"ekatte":"37544","name":"с. Ковачица","lat":43.80814775862069,"lng":23.37412982758621,"oblast":"Монтана","obshtina":"Лом"},{"ekatte":"70319","name":"с. Сухово","lat":41.6640143,"lng":25.2645835,"oblast":"Кърджали","obshtina":"Ардино"},{"ekatte":"53936","name":"с. Орлово","lat":41.82619905263158,"lng":25.54925763157895,"oblast":"Хасково","obshtina":"Хасково"},{"ekatte":"21169","name":"с. Динк","lat":42.268243749999996,"lng":24.80278675,"oblast":"Пловдив","obshtina":"Марица"},{"ekatte":"04786","name":"с. Богорово","lat":42.47384053333334,"lng":26.867151333333332,"oblast":"Ямбол","obshtina":"Стралджа"},{"ekatte":"70322","name":"с. Суходол","lat":42.43383784210526,"lng":27.094707421052632,"oblast":"Бургас","obshtina":"Средец"},{"ekatte":"21172","name":"с. Динката","lat":42.30236980769231,"lng":24.23431126923077,"oblast":"Пазарджик","obshtina":"Лесичово"},{"ekatte":"37558","name":"с. Ковил","lat":41.51188311111111,"lng":25.662048333333335,"oblast":"Кърджали","obshtina":"Крумовград"},{"ekatte":"37561","name":"с. Коевци","lat":43.159008560000004,"lng":25.12447288,"oblast":"Велико Търново","obshtina":"Сухиндол"},{"ekatte":"04796","name":"с. Богослов","lat":42.226822695652174,"lng":22.65383069565217,"oblast":"Кюстендил","obshtina":"Кюстендил"},{"ekatte":"70336","name":"с. Суходол","lat":43.96922121428572,"lng":26.910312357142857,"oblast":"Силистра","obshtina":"Главиница"},{"ekatte":"04801","name":"с. Богутево","lat":41.76512279166666,"lng":24.730266333333333,"oblast":"Смолян","obshtina":"Чепеларе"},{"ekatte":"21186","name":"с. Динковица","lat":44.051491666666664,"lng":22.775466833333336,"oblast":"Видин","obshtina":"Видин"},{"ekatte":"53953","name":"с. Орляк","lat":43.64680734615384,"lng":27.37130665384615,"oblast":"Добрич","obshtina":"Тервел"},{"ekatte":"21193","name":"с. Динково","lat":43.712343999999995,"lng":23.037510785714286,"oblast":"Видин","obshtina":"Ружинци"},{"ekatte":"04813","name":"с. Богьовци","lat":42.88005347058824,"lng":23.142943647058825,"oblast":"София","obshtina":"Костинброд"},{"ekatte":"53967","name":"с. Орляне","lat":43.134432833333335,"lng":24.507828875,"oblast":"Ловеч","obshtina":"Угърчин"},{"ekatte":"70353","name":"с. Сухозем","lat":42.41183945,"lng":24.87512905,"oblast":"Пловдив","obshtina":"Калояново"},{"ekatte":"53970","name":"с. Орсоя","lat":43.77697011764706,"lng":23.08366029411765,"oblast":"Монтана","obshtina":"Лом"},{"ekatte":"37592","name":"с. Кожари","lat":41.530693111111106,"lng":24.34111338888889,"oblast":"Смолян","obshtina":"Борино"},{"ekatte":"21209","name":"с. Диня","lat":42.3249102,"lng":25.8328415,"oblast":"Стара Загора","obshtina":"Раднево"},